Data Year,ID,Property Name,Reporting Status,Address,ZIP Code,Chicago Energy Rating,Exempt From Chicago Energy Rating,Community Area,Primary Property Type,Gross Floor Area - Buildings (sq ft),Year Built,# of Buildings,Water Use (kGal),ENERGY STAR Score,Electricity Use (kBtu),Natural Gas Use (kBtu),District Steam Use (kBtu),District Chilled Water Use (kBtu),All Other Fuel Use (kBtu),Site EUI (kBtu/sq ft),Source EUI (kBtu/sq ft),Weather Normalized Site EUI (kBtu/sq ft),Weather Normalized Source EUI (kBtu/sq ft),Total GHG Emissions (Metric Tons CO2e),GHG Intensity (kg CO2e/sq ft),Latitude,Longitude,Location,Row_ID
2019,159005,Corliss HS -CPS,Not Submitted,821 E 103rd St,,0.0,false,PULLMAN,,,,,,,,,,,,,,,,,,41.70649646,-87.60268998,"(41.70649646, -87.60268998)",2019-159005
2020,101716,311 S Wacker,Submitted Data,311 S Wacker,60606,4.0,false,LOOP,Office,1627486,1990,1,,75,68926498.9,,,,,48.1,134.6,50.3,140.9,10757.3,7.5,41.87745822,-87.63573828,"(41.87745822, -87.63573828)",2020-101716
2020,254296,Brompton,Not Submitted,534 552 W Brompton Ave,60657,0.0,false,Lake View,,109140,,,,,,,,,,,,,,,,41.9398563,-87.65846,"(41.9398563, -87.65846)",2020-254296
2019,256568,Vista Tower,Not Submitted,363 E Wacker Dr,,0.0,false,Loop,,,,,,,,,,,,,,,,,,41.886495,-87.618105,"(41.886495, -87.618105)",2019-256568
2014,100730,Congress Center,Submitted,525 W. Van Buren,60607,,,NEAR WEST SIDE,Office,527238,2000,1,,82,27485697,,,,,52,164,50,158,5522,10.47,41.87630749,-87.6401831,"(41.87630749, -87.6401831)",2014-100730
2018,141524,949 W MADISON,Not Submitted,949 W MADISON,60607,0.0,false,NEAR WEST SIDE,,137880,,1,1956,,,,,,,,,,,,,41.87399385,-87.651678,"(41.87399385, -87.651678)",2018-141524
2020,256549,,Exempt,110 W Huron St,60654,,true,Near North Side,,120000,,,,,,,,,,,,,,,,41.89293,-87.63511083,"(41.89293, -87.63511083)",2020-256549
2020,256794,,Exempt,6342 S GREEN ST,60621,,true,Englewood,,50000,,,,,,,,,,,,,,,,41.769845,-87.643155,"(41.769845, -87.643155)",2020-256794
2020,175892,,Exempt,4526  N SHERIDAN RD,60640,,true,UPTOWN,,96960,,,,,,,,,,,,,,,,41.97223008,-87.6645957,"(41.97223008, -87.6645957)",2020-175892
2020,232458,Harper Square Cooperative,Submitted Data,4800 - 4850 S Lake Park Ave,60615,1.0,false,KENWOOD,Multifamily Housing,627680,1974,1,,22,16397682.8,43537490.6,,,,95.5,146,100.3,150.7,4871.7,7.8,41.80747487,-87.59126397,"(41.80747487, -87.59126397)",2020-232458
2020,254616,Former Coyne College,Submitted Data,330 N Green St,60607,2.0,false,NEAR WEST SIDE,Office,555524,2019,1,,49,28606427.7,2199940.1,,,,55.5,148.3,56.7,151.8,4581.4,8.2,41.873335,-87.65102071,"(41.873335, -87.65102071)",2020-254616
2020,103812,400 W Superior St,Submitted Data,400 W Superior St,60654,3.0,false,NEAR NORTH SIDE,Office,130007,1998,1,,61,6489281.3,1493523.2,,,,61.4,151.8,63,154.8,1092.1,8.4,41.89575232,-87.638901,"(41.89575232, -87.638901)",2020-103812
2020,254073,Blue Moon Lofts,Submitted Data,215 N. Aberdeen St.,60607,4.0,false,NEAR WEST SIDE,Multifamily Housing,83000,1908,1,,100,1614582.3,825006.6,,,,29.4,64.9,29.6,64.3,295.8,3.6,41.87429514,-87.65017516,"(41.87429514, -87.65017516)",2020-254073
2020,254385,"Ambulatory Care Center, St. Bernard Hospital",Submitted Data,6307 S STEWART AVE,60621,2.5,false,Englewood,Medical Office,98018,2016,1,,59,4204723.5,2236782.3,,,,96.7,211.9,98,212.8,775,11.6,41.77391183,-87.63872071,"(41.77391183, -87.63872071)",2020-254385
2020,160214,Children's Memorial Hospital sub-building,Not Submitted,700 W Fullerton Ave,60614,0.0,false,LINCOLN PARK,,257400,,,,,,,,,,,,,,,,41.92548708,-87.64643712,"(41.92548708, -87.64643712)",2020-160214
2020,103745,,Submitted Data,900 North Michigan,60611,,true,NEAR NORTH SIDE,Mixed Use Property,2731896,1989,1,,,123364979.3,29220664.4,,,,71.4,176,74.5,184,20805.5,9.7,41.89920885,-87.62650606,"(41.89920885, -87.62650606)",2020-103745
2020,157607,Hilliard Homes Limited Partnership (Senior),Submitted Data,2111 S Clark Ave,60616,3.5,false,NEAR SOUTH SIDE,Multifamily Housing,311326,1966,2,,75,4993793,15777294.8,,,,80.1,117.8,82.9,120.3,1617.4,6.2,41.853983,-87.630083,"(41.853983, -87.630083)",2020-157607
2020,254329,901 South Plymouth Condominium Association,Submitted Data,901 S Plymouth Ct,60605,3.5,false,Loop,Multifamily Housing,199600,1979,1,,58,5821462.7,4643106.7,,,,64.7,131,68.7,139.8,1155.2,7.1,41.8682103,-87.62733,"(41.8682103, -87.62733)",2020-254329
2020,129621,Chalet Living and Rehab,Submitted Data,7350 7352 N SHERIDAN RD,60626,1.0,false,ROGERS PARK,Senior Living Community,77004,1976,1,,7,3786934.1,11175808,,,,223.3,333.4,238,347.3,1184.6,17.7,42.01036185,-87.66829765,"(42.01036185, -87.66829765)",2020-129621
2020,250020,Gage Park,Submitted Data,2411 W 55th St,60632,2.0,false,GAGE PARK,Other - Recreation,64960,1926,1,,,847144,6955745.2,,,,132.3,164.1,142.2,174.5,501.7,8.5,41.79382847,-87.68432907,"(41.79382847, -87.68432907)",2020-250020
2020,254001,,Submitted Data,4434 4444 N Damen Ave,60625,2.5,false,North Center,Multifamily Housing,53800,2006,1,,51,2985049.6,5693982,,,,78.2,129.2,81.2,133.1,768.3,6.9,41.9720897,-87.70256,"(41.9720897, -87.70256)",2020-254001
2020,251757,"Thorp Scholastic Academy, Ole A -CPS",Submitted Data,6024 W Warwick Ave,60634,4.0,false,DUNNING,K-12 School,93200,1918,1,,61,1246831.5,5832379.9,,,,76,103.2,86.5,114.3,504.4,5.4,41.94895308,-87.77785435,"(41.94895308, -87.77785435)",2020-251757
2020,250165,River East Center Campus,Submitted Data,322 E Illinois St,60611,1.0,false,NEAR NORTH SIDE,Mixed Use Property,1975361,2001,1,,20,64410587.3,102156516.4,,,,110.2,190.3,111.5,191.4,15478.5,10.2,41.8914469,-87.61889748,"(41.8914469, -87.61889748)",2020-250165
2020,157100,,Submitted Data,1611  W DIVISION ST,60622,4.0,false,WEST TOWN,Multifamily Housing,112734,2013,1,,81,2292017.8,4175204.4,,,,59.4,99.2,59.8,100.2,579.5,5.3,41.90225377,-87.68447845,"(41.90225377, -87.68447845)",2020-157100
2020,101722,500 W Monroe,Submitted Data,500 W Monroe,60661,1.0,false,NEAR WEST SIDE,Office,1554884,1992,1,,29,98139027.4,,,,,85.5,239.3,92.1,257.8,15316.5,13.3,41.880609,-87.639778,"(41.880609, -87.639778)",2020-101722
2020,101815,,Submitted Data,4845 4859 N MAGNOLIA AVE,60640,4.0,false,UPTOWN,Multifamily Housing,50986,1916,1,,75,417741.4,3243596.1,,,,71.8,89.7,76.5,94.7,237.5,4.7,41.97223008,-87.6645957,"(41.97223008, -87.6645957)",2020-101815
2020,251714,Lloyd Elementary -CPS,Submitted Data,2103 N Lamon Ave,60639,2.5,false,BELMONT CRAGIN,K-12 School,150436,1907,1,,32,4506708.5,7731610.1,,,,81.4,137.8,88,144.8,1114,7.4,41.91901757,-87.74788079,"(41.91901757, -87.74788079)",2020-251714
2020,175477,,Submitted Data,1617 1633 W BELMONT AVE,60657,3.0,false,LAKE VIEW,Multifamily Housing,56880,1928,1,,47,652896.4,4629361.5,,,,92.9,117.6,103.1,127.7,347.8,6.1,41.9398511,-87.65844752,"(41.9398511, -87.65844752)",2020-175477
2020,112141,,Submitted Data,3470  N LAKE SHORE DR,60657,3.0,false,LAKE VIEW,Multifamily Housing,155144,1968,1,,67,2550176.6,7203545.7,,,,73.6,111,77.6,115.2,780.6,5.9,41.9398511,-87.65844752,"(41.9398511, -87.65844752)",2020-112141
2020,101910,Michael A. Bilandic Building,Submitted Data,160 N LaSalle St,60601,4.0,false,LOOP,Office,464498,1920,1,,79,13045901.7,12600101.5,,,,55.2,107.1,57.7,109.8,2705.3,5.8,41.88474397,-87.63249596,"(41.88474397, -87.63249596)",2020-101910
2020,159419,"Fifth Praire Shores, LLC",Submitted Data,2801 S King Dr,60616,1.0,false,DOUGLAS,Multifamily Housing,289267,1960,1,,21,4709257.4,32647070.7,,,,129.1,164.1,137.5,172.9,2469,8.5,41.84364282,-87.61673336,"(41.84364282, -87.61673336)",2020-159419
2020,256550,NEMA Chicago,Submitted Data,1200 S Indiana Ave,60605,3.5,false,Near South Side,Multifamily Housing,1343820,2019,1,,60,32621765.2,38781158.3,,,,64.3,118.9,65.2,117.8,7151.1,6.4,41.865858,-87.6195328,"(41.865858, -87.6195328)",2020-256550
2020,255023,Clybourn1200,Submitted Data,454 W DIVISION ST,60610,2.0,false,Near North Side,Multifamily Housing,159968,2017,1,,50,3595190,6327708.9,,,,75.4,126.9,77.9,130.5,897.2,6.8,41.9037676,-87.63983401,"(41.9037676, -87.63983401)",2020-255023
2020,166122,"Rudolph, Wilma Elementary Learning Center/ Hope Institute -CPS",Submitted Data,1628 W Washington Blvd,60612,4.0,false,NEAR WEST SIDE,K-12 School,263250,1928,1,,79,4772375,7730980.2,,,,47.5,81.6,49.4,83.6,1155.5,4.4,41.88332,-87.667592,"(41.88332, -87.667592)",2020-166122
2020,119808,McGowan South,Submitted Data,1110 W Belden,60614,1.0,false,LINCOLN PARK,College/University,127900,2008,1,,,9262579.9,12478551.7,,,,170,305.2,175.1,309.5,2108.4,16.5,41.92382673,-87.65658512,"(41.92382673, -87.65658512)",2020-119808
2020,134516,,Submitted Data,321 339 S DESPLAINES ST,60661,2.0,false,NEAR WEST SIDE,Multifamily Housing,178336,1924,1,,43,5499154.7,7444594.3,,,,72.6,130.2,74.9,132.2,1253.7,7,41.88321395,-87.64336601,"(41.88321395, -87.64336601)",2020-134516
2020,254102,Residences at the VIC,Submitted Data,3140 N Sheffield Ave,60657,4.0,false,Lake View,Multifamily Housing,148500,2007,1,,100,1555012.2,2847150,,,,37.4,62.4,38.8,64.1,393.9,3.3,41.9393396,-87.65423,"(41.9393396, -87.65423)",2020-254102
2020,100372,Holy Cross Hospial,Submitted Data,2701 W 68th St,60629,4.0,false,CHICAGO LAWN,Hospital (General Medical & Surgical),409910,1911,1,,76,5050093.6,130271002.2,,,,330.1,368.2,,,7707.5,18.8,41.770003,-87.690841,"(41.770003, -87.690841)",2020-100372
2020,113507,LaSalle Terrace Condominium Association,Submitted Data,1540 N LaSalle St,60610,2.5,false,NEAR NORTH SIDE,Multifamily Housing,166700,1976,1,,36,4079885.6,8584849.7,,,,83.9,135.3,87.4,138.8,1092.7,7.2,41.91023785,-87.63363509,"(41.91023785, -87.63363509)",2020-113507
2020,147565,Lakeside Lofts,Submitted Data,2025  S INDIANA AVE,60616,4.0,false,NEAR SOUTH SIDE,Multifamily Housing,101333,2006,1,,89,1761482.5,5144159.1,,,,68.1,102,70.5,104.1,548.1,5.4,41.84550365,-87.63055693,"(41.84550365, -87.63055693)",2020-147565
2020,251889,Smyser -CPS,Submitted Data,4310 N Melvina Ave,60634,4.0,false,PORTAGE PARK,K-12 School,78111,1932,1,,64,1313825.7,3965590.1,,,,67.6,100.4,75.7,109.6,415.7,5.3,41.95925122,-87.78261967,"(41.95925122, -87.78261967)",2020-251889
2020,172640,,Submitted Data,832 890 W 103RD ST,60643,1.5,false,WASHINGTON HEIGHTS,Senior Living Community,65505,2001,1,,36,1807114.6,4835400,,,,101.4,154.8,105.1,157.9,538.9,8.2,41.6981819,-87.66236671,"(41.6981819, -87.66236671)",2020-172640
2020,244613,Fairbanks at Cityfront Plaza,Submitted Data,240 E Illinois St,60611,4.0,false,NEAR NORTH SIDE,Multifamily Housing,819946,2006,1,,70,18128454.4,42229277.5,,,,102,160.6,104.8,163.9,5072.3,8.6,41.89139925,-87.62079715,"(41.89139925, -87.62079715)",2020-244613
2020,104095,Hall Plaza,Not Submitted,4600 4650 W Diversey Ave,60639,0.0,false,HERMOSA,,53267,,,,,,,,,,,,,,,,41.93162302,-87.74252593,"(41.93162302, -87.74252593)",2020-104095
2020,115108,,Not Submitted,3825  N PINE GROVE AVE,60613,0.0,false,LAKE VIEW,,96636,,,,,,,,,,,,,,,,41.95402016,-87.6620278,"(41.95402016, -87.6620278)",2020-115108
2020,165664,DANK Haus German American Cultural Center,Submitted Data,4740 N Western Ave,60625,,true,LINCOLN SQUARE,Mixed Use Property,61042,1927,1,,,556057,3000126.4,,,,58.3,77.1,63.5,82.7,246.1,4,41.96811845,-87.68927436,"(41.96811845, -87.68927436)",2020-165664
2020,159733,,Submitted Data,4827 N SHERIDAN RD,60640,2.0,false,UPTOWN,Multifamily Housing,189225,1967,1,,48,2974779.6,13988381.3,,,,103.4,140.3,109,146.2,1207.3,7.4,41.96968174,-87.6544131,"(41.96968174, -87.6544131)",2020-159733
2020,173476,St. Demetrios Greek Orthodox Church,Submitted Data,2727 W WINONA ST,60625,4.0,false,LINCOLN SQUARE,Worship Facility,68141,1924,1,,67,400830.8,1780584.4,,,,34.5,47.4,41,54.1,157.1,2.5,41.97419798,-87.696868,"(41.97419798, -87.696868)",2020-173476
2020,100533,Englewood Academy HS -CPS,Submitted Data,6201 S Stewart Ave,60621,2.0,false,ENGLEWOOD,K-12 School,188800,1979,1,,21,7213052,12271600.2,,,,103.2,175.2,107.5,179.8,1777.5,9.4,41.78205573,-87.63426731,"(41.78205573, -87.63426731)",2020-100533
2020,105034,Carmen Marine Tenant Chicago Il,Not Submitted,5030 N Marine Dr,60640,0.0,false,UPTOWN,,397000,,,,,,,,,,,,,,,,41.97403176,-87.65193469,"(41.97403176, -87.65193469)",2020-105034
2020,101961,Inland Steel Building,Submitted Data,30 W Monroe,60603,3.0,false,LOOP,Office,311003,1958,1,,63,8659372.7,19525200.4,,,,93.6,148.7,98.4,153.7,2388.5,7.9,41.88108964,-87.62858918,"(41.88108964, -87.62858918)",2020-101961
2020,173857,,Submitted Data,5230 5244 N SHERIDAN RD,60640,2.5,false,EDGEWATER,Multifamily Housing,200000,1920,1,,57,2734994.3,16121333,,,,94.3,122.9,99.8,128.7,1283.1,6.4,41.97223008,-87.6645957,"(41.97223008, -87.6645957)",2020-173857
2020,242563,(IL279) - 212 W Washington Condo,Submitted Data,212 W Washington St,60606,2.0,false,LOOP,Multifamily Housing,344323,1912,1,,47,8344073.4,12464463.5,,,,74.9,131.2,78.1,134.4,1964.3,7.1,41.88326842,-87.63512143,"(41.88326842, -87.63512143)",2020-242563
2020,116752,Ike Sims Village,Submitted Data,3333  W MAYPOLE AVE,60624,1.0,false,EAST GARFIELD PARK,Multifamily Housing,68664,1981,1,,12,3806013.4,2429039.2,,,,90.8,192.3,93.7,198.9,723,10.5,41.8808242,-87.72327934,"(41.8808242, -87.72327934)",2020-116752
2020,115046,4200 N Marine Drive,Submitted Data,4200 4212 N MARINE DR,60613,1.5,false,UPTOWN,Multifamily Housing,114400,1957,1,,38,1707115.8,7366474.7,,,,79.3,109.4,84,114.3,657.7,5.7,41.95402016,-87.6620278,"(41.95402016, -87.6620278)",2020-115046
2020,160208,The James Hotel,Submitted Data,55 E Ontario St,60611,2.0,false,NEAR NORTH SIDE,Hotel,72000,2000,1,,26,7092609.8,6564979.8,,,,189.7,371.6,189.7,371.6,1455.6,20.2,41.89325924,-87.62587447,"(41.89325924, -87.62587447)",2020-160208
2020,222943,University Park Condominium Association,Submitted Data,1451 E 55th St,60615,4.0,false,HYDE PARK,Multifamily Housing,579783,1961,2,,85,1287153.1,48472538.7,,,,92.3,101.1,98.9,107.9,2775.5,5.1,41.79535144,-87.59076509,"(41.79535144, -87.59076509)",2020-222943
2020,118892,Parc Chestnut Condominium Association,Submitted Data,849 N Franklin St,60610,2.0,false,NEAR NORTH SIDE,Multifamily Housing,490568,2006,1,,41,11421519.7,19866551.2,,,,82.4,139.2,85.4,141.7,2837.8,7.5,41.897733,-87.635684,"(41.897733, -87.635684)",2020-118892
2020,103962,,Not Submitted,2828  N CAMBRIDGE AVE,60657,0.0,false,LAKE VIEW,,75300,,,,,,,,,,,,,,,,41.9398511,-87.65844752,"(41.9398511, -87.65844752)",2020-103962
2020,160383,,Submitted Data,2631 S Indiana Ave,60616,3.5,false,DOUGLAS,Multifamily Housing,247000,1972,1,,59,4511342.8,17590419.5,,,,89.5,125.9,93.9,130.5,1638.4,6.6,41.84526992,-87.62201708,"(41.84526992, -87.62201708)",2020-160383
2020,251451,Madero Middle -CPS,Submitted Data,3202 W 28th St,60623,2.0,false,SOUTH LAWNDALE,K-12 School,62071,1996,1,,15,2363458.7,3809910,,,,99.5,171.1,103,174.1,571.2,9.2,41.840909,-87.705078,"(41.840909, -87.705078)",2020-251451
2020,254153,Terra Cotta Commons Condominium,Submitted Data,1760 W Wrightwood Ave,60614,4.0,false,Lincoln Park,Multifamily Housing,63110,1920,1,,86,825649.4,1711368.1,,,,50.8,82.2,52.5,83.2,219.8,4.4,41.8842525,-87.63245,"(41.8842525, -87.63245)",2020-254153
2020,251235,,Submitted Data,110 E Delaware,60611,1.0,false,NEAR NORTH SIDE,Multifamily Housing,108587,1981,1,,4,5844800.9,1545771.6,,,,77.6,188.9,81.3,198.9,994.3,10.4,41.8992147,-87.62541324,"(41.8992147, -87.62541324)",2020-251235
2020,102336,Institute of Cultural Affairs,Submitted Data,4750 N Sheridan Rd,60640,4.0,false,UPTOWN,Office,206154,1921,1,,89,2249637.3,9225368.1,,,,66,90.7,70,94.6,926.8,5.1,41.96865627,-87.65524596,"(41.96865627, -87.65524596)",2020-102336
2020,160198,"The Blackstone, A Renaissance Hotel",Submitted Data,636 S Michigan Ave,60605,4.0,false,LOOP,Hotel,385000,2008,1,,99,6875145,11153711,,,,46.8,80.4,46.8,80.4,1665.4,4.3,41.87333117,-87.62422947,"(41.87333117, -87.62422947)",2020-160198
2020,256736,Jane Addams Elementary School,Submitted Data,10810 S Avenue H,60617,1.5,false,,K-12 School,54000,1948,1,,34,1563900.9,3503850.2,,,,81.7,129.9,92.7,144.4,430.2,6.9,41.74246,-87.58007,"(41.74246, -87.58007)",2020-256736
2020,173789,,Not Submitted,5332 5340 W Windsor,60630,0.0,false,PORTAGE PARK,,53018,,,,,,,,,,,,,,,,41.97200414,-87.75756578,"(41.97200414, -87.75756578)",2020-173789
2020,256458,United Center Office Building,Not Submitted,1901 W Madison St,60612,0.0,false,,,,,,,,,,,,,,,,,,,41.88125398,-87.67448493,"(41.88125398, -87.67448493)",2020-256458
2020,148673,,Submitted Data,1154  N CAMPBELL,60622,1.0,false,WEST TOWN,Multifamily Housing,52240,2005,1,,6,2329570.1,3276799.9,,,,107.6,191,111.8,194.8,537.6,10.3,41.90225377,-87.68447845,"(41.90225377, -87.68447845)",2020-148673
2020,121374,8522-Edgewater,Submitted Data,5201 Sheridan Rd,60640,3.5,false,EDGEWATER,Supermarket/Grocery Store,55129,2013,1,,55,9404755.4,6354424.8,,,,285.9,598.7,297,610.4,1805.3,32.7,41.976491,-87.654964,"(41.976491, -87.654964)",2020-121374
2020,160186,Crowne Plaza Chicago Metro,Submitted Data,733 W Madison St,60661,4.0,false,NEAR WEST SIDE,Hotel,114000,1968,1,,87,6706204.5,7115700.2,,,,69.1,131.2,71.7,136,1424.6,7.1,41.88176792,-87.6467544,"(41.88176792, -87.6467544)",2020-160186
2020,175523,222 West Hubbard Street,Submitted Data,222 W Hubbard St,60654,3.5,false,NEAR NORTH SIDE,Office,66095,1905,1,,76,2260402.2,1730722.9,,,,60.4,123.3,62.8,125.8,444.7,6.7,41.89022006,-87.63488473,"(41.89022006, -87.63488473)",2020-175523
2020,254164,,Submitted Data,6515 N Kenmore Ave,60660,4.0,false,Rogers Park,Library,124285,1930,1,,,4264045.2,3398007,,,,61.6,124.8,65.2,128.5,846,6.8,42.00094554,-87.65816364,"(42.00094554, -87.65816364)",2020-254164
2020,159902,Montgomery Place,Submitted Data,5550 S SHORE DR,60637,0.0,false,HYDE PARK,Multifamily Housing,225000,1991,1,,,,,,,,,,,,,,41.7937214,-87.58110439,"(41.7937214, -87.58110439)",2020-159902
2020,172670,Bricktown Square,Exempt,6560 W Fullerton Ave,60707,,true,BELMONT CRAGIN,,443313,,,,,,,,,,,,,,,,41.92368914,-87.78882768,"(41.92368914, -87.78882768)",2020-172670
2020,251416,Linne Elementary -CPS,Submitted Data,3221 N Sacramento Ave,60618,4.0,false,AVONDALE,K-12 School,105920,1895,1,,83,1690363,3212050,,,,46.3,76.5,50.4,81.4,434.4,4.1,41.94009886,-87.70193107,"(41.94009886, -87.70193107)",2020-251416
2020,251898,Durkin Park Elementary -CPS,Submitted Data,8445 S Kolin Ave,60652,3.5,false,ASHBURN,K-12 School,79722,1961,1,,57,2216222.5,2182680,,,,55.2,106.6,57.5,109,461.8,5.8,41.73937185,-87.73003923,"(41.73937185, -87.73003923)",2020-251898
2020,244200,Michigan Avenue Tower Condominium Association,Submitted Data,1250 S Michigan Ave,60605,3.5,false,NEAR SOUTH SIDE,Multifamily Housing,441181,2008,1,,51,11810740.5,14165958.4,,,,64.5,119.1,66.8,122.8,2595.7,6.4,41.8659887,-87.624587,"(41.8659887, -87.624587)",2020-244200
2020,100730,Congress Center,Submitted Data,525 W Van Buren,60607,4.0,false,NEAR WEST SIDE,Office,539738,2000,1,,77,22640612.2,,,,,42.9,120.2,44.5,124.6,3533.5,6.7,41.87630749,-87.6401831,"(41.87630749, -87.6401831)",2020-100730
2020,253957,,Submitted Data,7201-09 S Yates Blvd,60649,1.0,false,SOUTH SHORE,Multifamily Housing,101200,1926,1,,10,1340556.3,9883868.5,,,,110.9,139.6,118,147.1,734.2,7.3,41.76263015,-87.57255287,"(41.76263015, -87.57255287)",2020-253957
2020,103475,,Not Submitted,7235 7245 S JEFFERY BLVD,60649,0.0,false,SOUTH SHORE,,57776,,,,,,,,,,,,,,,,41.76259226,-87.57231648,"(41.76259226, -87.57231648)",2020-103475
2020,101999,,Submitted Data,1415  W LUNT AVE,60626,3.5,false,ROGERS PARK,Multifamily Housing,52000,1972,1,,80,837584.5,2768148,,,,85.9,125,90.7,129.4,277.8,6.6,42.01036185,-87.66829765,"(42.01036185, -87.66829765)",2020-101999
2020,252071,Library Tower Condo Assoc.,Submitted Data,520 S State St,60605,3.5,false,LOOP,Multifamily Housing,387025,2008,1,,72,7950181.2,14376343.1,,,,61.4,102.7,63.6,105.1,2004.4,5.5,41.87510719,-87.6279746,"(41.87510719, -87.6279746)",2020-252071
2020,251574,Ariel Elemenentary-CPS,Submitted Data,1119 E 46th St,60653,2.5,false,KENWOOD,K-12 School,147109,1893,1,,32,4164781,8226969.9,,,,84.2,138,89.1,141.3,1087,7.4,41.81098941,-87.59800845,"(41.81098941, -87.59800845)",2020-251574
2020,251668,Ravenswood Elementary -CPS,Submitted Data,4332 N Paulina St,60613,4.0,false,LAKE VIEW,K-12 School,76423,1915,1,,66,947881,4502900.4,,,,71.3,96.6,76.1,101.6,387.1,5.1,41.96092641,-87.6712754,"(41.96092641, -87.6712754)",2020-251668
2020,252054,"Rockefeller,Mitchell,Reynolds,Hutchinson,Zoology,Erman,Mandel,Oriental,Pres.Home",Submitted Data,5850 S Woodlawn Ave,60637,1.0,false,HYDE PARK,Museum,103012,1931,1,,,4468194.6,,8115450.9,7421459.9,,194.2,281.8,194,282.1,1627.3,15.8,41.78921164,-87.5964353,"(41.78921164, -87.5964353)",2020-252054
2020,252104,Warner Brothers,Submitted Data,2650 W Bradley Pl,60618,2.0,false,North Center,Office,275000,1981,3,,,14878881.9,4162790.1,,,,126.9,306.9,129.6,309.6,2543.2,17,41.9494826,-87.6937,"(41.9494826, -87.6937)",2020-252104
2020,173888,,Submitted Data,6628  N SHERIDAN RD,60626,4.0,false,ROGERS PARK,Residence Hall/Dormitory,85129,1971,1,,91,1479114.6,2938900.2,,,,51.9,84.9,55.8,89,386.9,4.5,42.01036185,-87.66829765,"(42.01036185, -87.66829765)",2020-173888
2020,251593,"Clay Elementary, Henry -CPS",Submitted Data,13221 S Burley,60633,3.0,false,HEGEWISCH,K-12 School,81950,1917,1,,43,1370731.8,5550389.7,,,,84.5,117.9,97.5,131.7,508.7,6.2,41.655086,-87.544686,"(41.655086, -87.544686)",2020-251593
2020,234641,Winston Towers II,Submitted Data,6833 N Kedzie Ave,60645,1.0,false,WEST RIDGE,Multifamily Housing,360669,1966,1,,27,6925520.8,23023027.5,,,,114.9,167.2,121.8,172.8,2303.7,8.8,42.00574707,-87.70855729,"(42.00574707, -87.70855729)",2020-234641
2020,254048,Catholic Charities: St. Leo Residence,Submitted Data,7750 S Emerald Ave,60620,1.5,false,Auburn Gresham,Multifamily Housing,67170,2006,1,,31,2413440.7,4708995.6,,,,108.5,178.3,110.4,180.3,626.8,9.5,41.73979805,-87.65349931,"(41.73979805, -87.65349931)",2020-254048
2020,119039,Churchview Manors and Churview supportive Living,Submitted Data,2626 2644 W 63RD ST,60629,1.0,false,CHICAGO LAWN,Senior Living Community,74185,2004,1,,25,2325856.1,5277976.8,,,,112.8,178.9,117.5,184.6,643.3,9.5,41.77517105,-87.71389848,"(41.77517105, -87.71389848)",2020-119039
2020,251429,Mayo Elementary -CPS,Submitted Data,245 E 37th St,60653,4.0,false,DOUGLAS,K-12 School,62750,1961,1,,65,1044686.8,3067909.7,,,,65.5,98,70.3,103.5,326,5.2,41.827401,-87.620126,"(41.827401, -87.620126)",2020-251429
2020,172485,,Submitted Data,36 50 N MENARD AVE,60644,4.0,false,AUSTIN,Multifamily Housing,91968,1930,,,82,927569.2,3339321.9,,,,62.8,89.8,65.6,92.6,322.1,4.7,41.88039405,-87.75826967,"(41.88039405, -87.75826967)",2020-172485
2020,255970,Hayden,Submitted Data,1109 W Washington,60607,2.5,false,NEAR WEST SIDE,Multifamily Housing,110435,2020,1,,38,3185730,5929664.5,,,,89,147.9,92.2,150.5,812.1,7.9,41.88,-87.6548399,"(41.88, -87.6548399)",2020-255970
2020,255027,,Submitted Data,720 S WELLS ST,60607,4.0,false,Loop,Multifamily Housing,563659,2018,1,,90,11644228.2,11383738.7,,,,50.6,97.9,51.9,99.4,2422,5.3,41.87284786,-87.63364515,"(41.87284786, -87.63364515)",2020-255027
2020,251588,"Taylor, Douglas -CPS",Submitted Data,9912 S Avenue H,60617,2.0,false,EAST SIDE,K-12 School,87628,1923,1,,21,1010667.5,9732470.2,,,,122.6,148.9,138.3,165.4,674.7,7.7,41.71516268,-87.5337866,"(41.71516268, -87.5337866)",2020-251588
2020,256653,,Not Submitted,3212 West Diversey Ave,,0.0,false,,,50000,,,,,,,,,,,,,,,,41.88425,-87.63245,"(41.88425, -87.63245)",2020-256653
2020,251698,Bradwell Arts & Sciences Elementary -CPS,Submitted Data,7726 S Burnham,60649,4.0,false,SOUTH SHORE,K-12 School,143266,1895,1,,91,1661189,4377879.9,,,,42.2,64.6,46.5,69.5,491.8,3.4,41.75447542,-87.55737916,"(41.75447542, -87.55737916)",2020-251698
2020,175960,,Submitted Data,5254  S DORCHESTER AVE,60615,1.0,false,HYDE PARK,Multifamily Housing,64000,1925,1,,30,1596529.4,6100596.2,,,,120.3,169.9,125.5,174.6,573.2,9,41.80224043,-87.60332678,"(41.80224043, -87.60332678)",2020-175960
2020,244534,One Museum Park East Condominium Association,Submitted Data,1211 S Prairie Ave,60605,4.0,false,NEAR SOUTH SIDE,Multifamily Housing,1151549,2008,1,,81,19781459.6,39525344.4,,,,62.3,101.7,64.7,104.3,5186.7,5.4,41.86619413,-87.62121604,"(41.86619413, -87.62121604)",2020-244534
2020,256422,Materials & Metals Building,Submitted Data,3350 S Federal Street,60616,4.0,false,DOUGLAS,College/University,68398,1943,1,,,8148.5,,382.1,,,0.1,0.3,0.1,0.3,1.3,0,41.842325,-87.62715344,"(41.842325, -87.62715344)",2020-256422
2020,260029,,Submitted Data,5724 5734 S BLACKSTONE AVE,60637,4.0,false,HYDE PARK,Multifamily Housing,52272,1926,1,,80,545864.8,3010592.1,,,,68,89.7,72,93.9,245.1,4.7,41.78046327,-87.6053081,"(41.78046327, -87.6053081)",2020-260029
2020,251491,Frazier International Magnet -CPS,Submitted Data,4027 W Grenshaw St,60624,2.5,false,NORTH LAWNDALE,K-12 School,72000,1966,1,,31,1264862.9,6140970,,,,102.9,138.7,110.9,147.2,523.6,7.3,41.86684246,-87.72623661,"(41.86684246, -87.72623661)",2020-251491
2020,103597,30 N LaSalle St,Submitted Data,30 N LaSalle St,60602,3.5,false,LOOP,Office,1095104,1974,1,,76,32826510.8,31469670.8,,,,58.7,114.1,62.2,117.8,6794.7,6.2,41.88284628,-87.63290243,"(41.88284628, -87.63290243)",2020-103597
2020,103645,203 N LaSalle St,Submitted Data,203 N LaSalle St,60601,4.0,false,LOOP,Office,1191631,1985,1,,74,34656715.2,400857.8,,,,53.1,147.6,55.3,153.7,5430.1,8.2,41.88606221,-87.63169041,"(41.88606221, -87.63169041)",2020-103645
2020,161131,731 S Plymouth Ct,Submitted Data,731 S Plymouth Ct,60605,3.0,false,LOOP,Multifamily Housing,151865,1913,1,,46,6054672.5,2473410.2,,,,56.2,128.7,65.7,143.7,1076.3,7.1,41.87269291,-87.62837598,"(41.87269291, -87.62837598)",2020-161131
2020,244360,1720 South Michigan Condominium Association,Submitted Data,1720 S Michigan Ave,60616,3.5,false,NEAR SOUTH SIDE,Multifamily Housing,684299,2007,1,,55,17101534.3,27121534.4,,,,83.7,144.4,87.8,149.5,4109.6,7.8,41.85862339,-87.62421069,"(41.85862339, -87.62421069)",2020-244360
2020,251651,Gary Elementary -CPS,Submitted Data,3740 W 31st St,60623,3.5,false,SOUTH LAWNDALE,K-12 School,132193,1911,1,,51,2945797.4,6414819.6,,,,70.8,113.3,78.1,123.5,800.5,6.1,41.83790661,-87.71883999,"(41.83790661, -87.71883999)",2020-251651
2020,252328,,Submitted Data,5630 N Sheridan Ave,60660,3.5,false,EDGEWATER,Multifamily Housing,259996,1957,1,,77,3442472.2,17696679,,,,88.1,117.6,96.2,126.1,1477.2,6.2,41.98474511,-87.65522225,"(41.98474511, -87.65522225)",2020-252328
2020,160105,Wyndham Grand Chicago Riverfront,Submitted Data,71 E Wacker Dr,60601,2.5,false,LOOP,Hotel,250000,2000,1,,52,7420795.6,12522087.3,,2061360.2,,88,143.2,94.5,151.6,1931.9,7.7,41.88737377,-87.62565442,"(41.88737377, -87.62565442)",2020-160105
2020,251683,Cooper Dual Language Academy -CPS,Submitted Data,1624 W 19th St,60608,4.0,false,LOWER WEST SIDE,K-12 School,131200,1885,1,,95,1515428.9,2795680.3,,,,32.9,54.7,35.8,58.2,385,2.9,41.85622477,-87.66713005,"(41.85622477, -87.66713005)",2020-251683
2020,172106,,Submitted Data,55  W CHESTNUT ST,60610,2.5,false,NEAR NORTH SIDE,Multifamily Housing,220000,1957,1,,51,4260700.9,11601290,,,,77.4,117.6,80.9,120.1,1281.2,6.2,41.9037528,-87.63558845,"(41.9037528, -87.63558845)",2020-172106
2020,116408,,Submitted Data,3244  W 59TH ST,60629,1.0,false,GAGE PARK,Senior Living Community,60000,2005,1,,27,1767828.8,4269800.1,,,,100.6,157.2,104.7,160.8,502.7,8.4,41.77517105,-87.71389848,"(41.77517105, -87.71389848)",2020-116408
2020,251408,Clissold Elementary -CPS,Submitted Data,2330 W 110th Pl,60643,3.0,false,MORGAN PARK,K-12 School,63257,1930,1,,46,1366837.9,3532610.3,,,,77.5,119.1,82.4,124.4,401,6.3,41.692987,-87.679776,"(41.692987, -87.679776)",2020-251408
2020,160373,Hubbard Place Apartments,Submitted Data,360 W Hubbard St,60654,4.0,false,NEAR NORTH SIDE,Multifamily Housing,686958,2013,1,,70,13635950.2,19413967.5,,,,66.1,117.1,68.9,120,3159.3,6.3,41.89042593,-87.63864217,"(41.89042593, -87.63864217)",2020-160373
2020,252075,UNO Veterans Memorial Campus (Charter School),Not Submitted,4248 W 47TH ST,60632,0.0,false,ARCHER HEIGHTS,,200999,,,,,,,,,,,,,,,,41.80878989,-87.73077801,"(41.80878989, -87.73077801)",2020-252075
2020,256672,River Walk Townhomes,Submitted Data,2903-2923 N Claremont Ave,,3.0,false,,Multifamily Housing,96737,2004,3,,64,1549174.3,4233378.4,,,,80.6,122.4,83.5,125.5,466.6,6.5,41.88425,-87.63245,"(41.88425, -87.63245)",2020-256672
2020,100631,Hubbard HS -CPS,Submitted Data,6200 S Hamlin Ave,60629,4.0,false,WEST LAWN,K-12 School,218200,1929,1,,90,2657029.3,8436730.5,,,,50.8,74.7,55.6,79.7,862.8,4,41.77984105,-87.71918715,"(41.77984105, -87.71918715)",2020-100631
2020,237384,Maple Tower Condominiums,Submitted Data,1035 N DEARBORN ST,60610,4.0,false,NEAR NORTH SIDE,Multifamily Housing,135086,2005,1,,70,4399460.2,869227.2,,,,47.1,118.4,49.7,125.7,732.8,6.6,41.90163587,-87.62949064,"(41.90163587, -87.62949064)",2020-237384
2020,251518,"Pulaski Fine Arts Academy, Casimir -CPS",Submitted Data,2230 W Mclean Ave,60647,2.0,false,LOGAN SQUARE,K-12 School,103904,1949,1,,15,3876184.4,6403839.9,,,,98.9,169.2,105.3,178.3,945.1,9.1,41.91878607,-87.68377909,"(41.91878607, -87.68377909)",2020-251518
2020,254989,Depaul University Holtschneider Performance Center,Submitted Data,2330 N HALSTED ST,60614,2.0,false,Lincoln Park,Performing Arts,242343,2018,1,,,5284864,14042348.6,,,,104.5,159.7,107,162.4,1570.7,8.5,41.92416242,-87.64878559,"(41.92416242, -87.64878559)",2020-254989
2020,160347,Dwight Lofts LLC,Submitted Data,642 S Clark St,60605,4.0,false,LOOP,Multifamily Housing,205348,2008,1,,79,7500367.8,9142095.7,,,,84.6,155.5,87.8,158.9,1656.2,8.4,41.87384,-87.630698,"(41.87384, -87.630698)",2020-160347
2020,251600,Mozart -CPS,Submitted Data,2200 N Hamlin Ave,60647,3.5,false,LOGAN SQUARE,K-12 School,92365,1911,1,,57,1874065.3,4455830.1,,,,68.5,107.5,72.5,111.6,529.2,5.7,41.92132822,-87.72244339,"(41.92132822, -87.72244339)",2020-251600
2020,251325,Belden-Racine Hall,Submitted Data,2311 N Racine Ave,60614,3.0,false,LINCOLN PARK,College/University,68245,2000,1,,,2117149.9,4186854.8,,,,92.4,151.3,96.6,155.8,552.8,8.1,41.92390285,-87.65817716,"(41.92390285, -87.65817716)",2020-251325
2020,251277,WMS-2718 Roscoe,Exempt,2718 W Roscoe St,60618,,true,AVONDALE,,121666,,,,,,,,,,,,,,,,41.942829,-87.696215,"(41.942829, -87.696215)",2020-251277
2020,251401,"Neil Elementary, Jane A -CPS",Submitted Data,8555 S Michigan Ave,60619,4.0,false,CHATHAM,K-12 School,71870,1953,1,,68,333471.8,5564070.3,,,,82.1,94.3,87.5,100.3,347.6,4.8,41.73856744,-87.62024724,"(41.73856744, -87.62024724)",2020-251401
2020,251280,WMS Gaming 3401 California,Not Submitted,3401 N California Ave,60618,0.0,false,AVONDALE,,120687,,,,,,,,,,,,,,,,41.94324144,-87.69789403,"(41.94324144, -87.69789403)",2020-251280
2020,156373,225 W Ohio St,Submitted Data,225 W Ohio St,60654,3.5,false,NEAR NORTH SIDE,Office,60892,1907,1,,79,1293163.6,1677071.8,,,,48.8,88.4,50.9,90.6,290.9,4.8,41.89234316,-87.63534055,"(41.89234316, -87.63534055)",2020-156373
2020,252123,Gary Comer Youth Center (South Shore Drill Team),Submitted Data,7200 S Ingleside Ave,60619,2.0,false,GREATER GRAND CROSSING,Other,115500,2006,1,,,3514945.8,1532663.1,,,,63.1,143.1,64.7,144.8,630,7.9,41.76400303,-87.60189552,"(41.76400303, -87.60189552)",2020-252123
2020,165819,Washington Park SRO,Submitted Data,5000 5016 S INDIANA AVE,60615,4.0,false,GRAND BOULEVARD,Multifamily Housing,97465,1982,1,,96,1487504.1,2343124.9,,,,39.3,68,39.3,68,356.6,3.7,41.80363832,-87.62178136,"(41.80363832, -87.62178136)",2020-165819
2020,101713,Aon Center,Submitted Data,200 E Randolph St,60601,4.0,false,LOOP,Office,3457865,1972,1,,81,88649320.1,74788659.9,,55385315.7,,68.6,118.1,70,119.7,20741.2,6.5,41.88529085,-87.62152084,"(41.88529085, -87.62152084)",2020-101713
2020,101799,200 S Wacker Property LLC,Submitted Data,200 S Wacker Dr,60606,3.0,false,LOOP,Office,865070,1981,1,,66,43810653.1,,,,,52,145.5,53.6,150.1,6837.5,8.1,41.87902474,-87.63734431,"(41.87902474, -87.63734431)",2020-101799
2020,111837,Marlborough Condominium Association,Submitted Data,400 414 W DEMING PL,60614,4.0,false,LINCOLN PARK,Multifamily Housing,196000,1912,1,,83,2107442.3,11078440.1,,,,67.3,89.5,71.1,92.9,917.3,4.7,41.92201051,-87.65461957,"(41.92201051, -87.65461957)",2020-111837
2020,252031,57135-Chicago-Downtown,Submitted Data,201 E Walton Pl,60611,4.0,false,NEAR NORTH SIDE,Hotel,177137,1987,1,,71,5515610.6,12566948.8,,,,102.1,161.7,105.7,164.7,1528.3,8.6,41.89981331,-87.62141411,"(41.89981331, -87.62141411)",2020-252031
2020,244318,The Edge Lofts & Tower Condominium Association,Submitted Data,210 S Des Plaines St,60661,1.0,false,NEAR WEST SIDE,Multifamily Housing,353135,2004,1,,14,8998699.6,18600712.2,,,,116,188.1,119.2,190.8,2392.4,10.1,41.87894567,-87.64445559,"(41.87894567, -87.64445559)",2020-244318
2020,251530,Pasteur Elementary -CPS,Submitted Data,5825 S Kostner Ave,60629,4.0,false,WEST ELSDON,K-12 School,98900,1927,1,,78,1704448.1,3629759.9,,,,53.9,86.8,59.2,93.1,458.8,4.6,41.78617286,-87.73238001,"(41.78617286, -87.73238001)",2020-251530
2020,252030,012-012-Tremont Hotel,Not Submitted,100 E Chestnut,60611,0.0,false,NEAR NORTH SIDE,,95526,,,,,,,,,,,,,,,,41.89857555,-87.62561977,"(41.89857555, -87.62561977)",2020-252030
2020,175751,"750 Orleans, Inc.",Submitted Data,750 N Orleans St,60654,4.0,false,NEAR NORTH SIDE,Office,74458,1903,1,,61,4350201.1,,,,,58.4,163.6,63.1,176.7,678.9,9.1,41.89611172,-87.63720777,"(41.89611172, -87.63720777)",2020-175751
2020,255003,"L - Logan Square Apartment Community 
Navigator Taproom",Not Submitted,2211 N MILWAUKEE AVE,60647,0.0,false,Logan Square,,119727,,,,,,,,,,,,,,,,41.92105626,-87.69421012,"(41.92105626, -87.69421012)",2020-255003
2020,251692,Nightingale Elementary -CPS,Submitted Data,5250 S Rockwell St,60632,2.0,false,GAGE PARK,K-12 School,140838,1926,1,,26,4481327.7,7751970.2,,,,86.9,146.9,90.5,151,1111.1,7.9,41.79805484,-87.68983953,"(41.79805484, -87.68983953)",2020-251692
2020,148480,,Submitted Data,865  N LARRABEE ST,60610,3.0,false,NEAR NORTH SIDE,Multifamily Housing,80457,2006,1,,62,1860328.2,3271503.8,,,,63.8,107.4,64.8,108.1,464.1,5.8,41.9037528,-87.63558845,"(41.9037528, -87.63558845)",2020-148480
2020,101756,Cook County Building,Submitted Data,118 N Clark St,60602,3.5,false,LOOP,Office,638592,1906,1,,53,31463456.1,30530798.1,,,,97.1,188.2,101.5,192.8,6532.1,10.2,41.88385328,-87.63167966,"(41.88385328, -87.63167966)",2020-101756
2020,112801,,Submitted Data,5740  N SHERIDAN RD,60660,3.0,false,EDGEWATER,Multifamily Housing,104500,1977,1,,43,1708541.9,6542596.4,,,,93.8,132.4,102.9,141.5,614.2,7,41.99090057,-87.66660744,"(41.99090057, -87.66660744)",2020-112801
2020,160284,1251/1255 S. Michigan,Submitted Data,1255 S Michigan Ave,60605,0.0,false,NEAR SOUTH SIDE,,642408,,,,,,,,,,,,,,,,41.86623341,-87.62362373,"(41.86623341, -87.62362373)",2020-160284
2020,252127,Circa 922,Submitted Data,922 W Washington Blvd,60607,3.0,false,Near West Side,Multifamily Housing,204813,2015,1,,48,4917504,7406928.1,,,,78.4,137,80.7,139,1160.9,7.4,41.8831353,-87.65056,"(41.8831353, -87.65056)",2020-252127
2020,188280,,Submitted Data,5200 5208 S BLACKSTONE AVE,60615,1.5,false,HYDE PARK,Multifamily Housing,148157,1930,1,,37,5502344.4,5397899.8,,,,73.6,142.2,77.3,150.4,1145.5,7.7,41.8007869,-87.59048115,"(41.8007869, -87.59048115)",2020-188280
2020,130758,,Submitted Data,651  S WELLS ST,60607,3.5,false,LOOP,Multifamily Housing,99552,1950,1,,73,3552011.1,,,,,35.7,99.9,37.7,105.6,554.4,5.6,41.87399385,-87.651678,"(41.87399385, -87.651678)",2020-130758
2020,159892,Promontory Apartments,Submitted Data,5530 S SHORE DR,60637,3.5,false,HYDE PARK,Multifamily Housing,180351,1949,1,,53,3265741.3,13586599.8,,,,93.4,129.8,98.8,135.2,1231.3,6.8,41.794687,-87.58046479,"(41.794687, -87.58046479)",2020-159892
2020,116552,,Not Submitted,4001 4013 S ELLIS AVE,60653,0.0,false,OAKLAND,,61610,,,,,,,,,,,,,,,,41.82021138,-87.61246867,"(41.82021138, -87.61246867)",2020-116552
2020,260149,Riverside Square and River's Edge - Chicago,Submitted Data,3145 S Ashland Ave,60608,4.0,false,MCKINLEY PARK,Supermarket/Grocery Store,74495,1987,1,,100,2501105.3,1713599.9,,,,56.6,118.2,,,481.4,6.5,41.8365795,-87.66384491,"(41.8365795, -87.66384491)",2020-260149
2020,251260,The Belmont by Reside,Submitted Data,3170 N Sheridan Rd,60657,3.5,false,LAKE VIEW,Multifamily Housing,475020,1924,1,,78,7579433.3,19817492.8,,,,57.7,88.5,59.5,90.4,2235.5,4.7,41.93973305,-87.64000019,"(41.93973305, -87.64000019)",2020-251260
2020,104226,,Submitted Data,606 620 W CORNELIA AVE,60657,4.0,false,LAKE VIEW,Multifamily Housing,81300,1969,1,,94,997624.4,4131599.4,,,,70.6,98.1,74.2,101.7,375.1,5.2,41.9398511,-87.65844752,"(41.9398511, -87.65844752)",2020-104226
2020,118695,,Submitted Data,2825  S HALSTED,60608,3.0,false,BRIDGEPORT,Senior Living Community,69455,2005,1,,65,1878200.2,4062399.6,,,,85.5,137.1,88.8,140.3,508.9,7.3,41.84915346,-87.67089596,"(41.84915346, -87.67089596)",2020-118695
2020,255017,Midway Pointe Senior Residences,Submitted Data,5011 W 47TH ST,60638,4.0,false,Garfield Ridge,Multifamily Housing,88080,2017,1,,92,2168049.7,1491337.5,,,,41.5,86.7,43,89.2,417.6,4.7,41.80752955,-87.74863158,"(41.80752955, -87.74863158)",2020-255017
2020,256680,Old Town Village East,Submitted Data,1205-1255 N Orleans Court,60610,4.0,false,,Multifamily Housing,127872,2006,6,,98,904118.5,1933907.4,,,,44,70.8,45.8,72.5,243.8,3.8,41.90423,-87.638225,"(41.90423, -87.638225)",2020-256680
2020,252216,Beach Point Tower Condominium Association,Submitted Data,5801 N Sheridan Rd,60660,1.0,false,EDGEWATER,Multifamily Housing,160000,1956,1,,17,2879608.5,12834131.1,,,,98.2,134.6,107.5,142.7,1131.1,7.1,41.98760277,-87.65521384,"(41.98760277, -87.65521384)",2020-252216
2020,233760,Park Newberry Condominiums,Submitted Data,55 W Delaware Pl,60610,1.0,false,NEAR NORTH SIDE,Multifamily Housing,354934,1995,1,,4,10694320.7,23494153,,,,131.5,210,137.5,215.6,2916.9,11.2,41.89821936,-87.63056762,"(41.89821936, -87.63056762)",2020-233760
2020,103766,640 N LaSalle Dr,Submitted Data,640 N LaSalle St,60654,4.0,false,NEAR NORTH SIDE,Office,329845,1969,1,,68,16202311.9,2245160.3,,,,65.3,169,68.4,175.1,2647.9,9.4,41.89361489,-87.63342151,"(41.89361489, -87.63342151)",2020-103766
2020,159982,Mahalia Jackson Apt,Submitted Data,9141 - 9177 S South Chicago Ave,60617,1.0,false,SOUTH CHICAGO,Multifamily Housing,103330,1974,2,,9,3471545.9,15959119.9,,,,213.1,290.4,227,305,1389.5,15.2,41.72901449,-87.55425891,"(41.72901449, -87.55425891)",2020-159982
2020,175495,House of Blues Chicago,Submitted Data,329 N Dearborn St,60654,4.0,false,NEAR NORTH SIDE,Performing Arts,54600,1996,1,,,3129321.9,1064740,,,,76.8,181,76.8,181,544.9,10,41.88833261,-87.62950362,"(41.88833261, -87.62950362)",2020-175495
2020,244325,,Submitted Data,7033 N KEDZIE AVE,60645,1.0,false,WEST RIDGE,Multifamily Housing,333000,1968,1,,11,7061555.3,36530711,,,,134.1,178.9,137.6,182.5,3042.4,9.4,42.00899392,-87.70844514,"(42.00899392, -87.70844514)",2020-244325
2020,251488,Esmond Elementary -CPS,Submitted Data,1865 W Montvale Ave,60643,2.5,false,MORGAN PARK,K-12 School,53700,1891,1,,33,763518.4,5371580.2,,,,114.2,144.8,122.8,153.8,404.5,7.5,41.6887948,-87.66968662,"(41.6887948, -87.66968662)",2020-251488
2020,175789,,Not Submitted,7540 7554 S STONY ISLAND,60649,0.0,false,SOUTH SHORE,,81378,,,,,,,,,,,,,,,,41.75771915,-87.58613076,"(41.75771915, -87.58613076)",2020-175789
2020,101560,IL0054ZZ - Clark Fedral Bldg,Submitted Data,536 S Clark St,60605,3.0,false,LOOP,Office,636217,1912,1,,42,29743740.4,37313760.5,,,,105.4,192.5,108.7,195.4,6624,10.4,41.87500832,-87.63122808,"(41.87500832, -87.63122808)",2020-101560
2020,251404,"Burr Elementary, Jonathan -CPS",Submitted Data,1621 W Wabansia Ave,60622,2.5,false,WEST TOWN,K-12 School,60929,1896,1,,34,800519.2,5661870.2,,,,106.1,134.4,118.1,147.4,425.7,7,41.912405,-87.668589,"(41.912405, -87.668589)",2020-251404
2020,159651,,Submitted Data,352 360 W WELLINGTON AVE,60657,1.0,false,LAKE VIEW,Multifamily Housing,158320,1960,1,,,738234,371924615.1,,,,2559.5,2696.3,2559.6,2696.5,19869.9,136.5,41.93692151,-87.63910514,"(41.93692151, -87.63910514)",2020-159651
2020,251541,Reilly Es -CPS,Submitted Data,3650 W School St,60618,2.5,false,AVONDALE,K-12 School,113870,1914,1,,34,3054648.8,7421690.2,,,,92,143.5,96.3,148.1,870.9,7.6,41.94159842,-87.7192968,"(41.94159842, -87.7192968)",2020-251541
2020,104430,Edgewater Flats Condominium,Submitted Data,1215 1225 W GRANVILLE AVE,60660,3.0,false,EDGEWATER,Multifamily Housing,51840,1920,2,,64,488178.8,,,,,74.6,94.8,82.7,102.5,255.8,4.9,41.99090057,-87.66660744,"(41.99090057, -87.66660744)",2020-104430
2020,119629,Costco,Submitted Data,2746 N Clybourn Ave,60614,3.5,false,LINCOLN PARK,Supermarket/Grocery Store,142374,2001,1,,72,15137211,11667060,,,,188.3,383.7,196,391.1,2982.1,20.9,41.93130757,-87.67737064,"(41.93130757, -87.67737064)",2020-119629
2020,102766,,Submitted Data,6150  N KENMORE AVE,60660,4.0,false,EDGEWATER,Multifamily Housing,77900,1962,1,,66,1477795.2,4602635.9,,,,83.3,122.9,90.8,129.8,475.1,6.5,41.99090057,-87.66660744,"(41.99090057, -87.66660744)",2020-102766
2020,112724,,Submitted Data,6119 6125 N WINCHESTER AVE,60660,1.0,false,WEST RIDGE,Multifamily Housing,57600,1951,1,,11,1467088.3,6422899.9,,,,137,188.4,151.2,203.3,570.1,9.9,41.99090057,-87.66660744,"(41.99090057, -87.66660744)",2020-112724
2020,145637,,Not Submitted,4815 4835 W BELLE PLAINE AVE,60641,0.0,false,PORTAGE PARK,,126211,,,,,,,,,,,,,,,,41.94615136,-87.74707694,"(41.94615136, -87.74707694)",2020-145637
2020,130949,Life Changers International Church,Exempt,1337 W 15TH ST,60608,,true,NEAR WEST SIDE,,81933,,,,,,,,,,,,,,,,41.86125779,-87.66083086,"(41.86125779, -87.66083086)",2020-130949
2020,251470,Dett,Submitted Data,2101 W Monroe,60612,3.0,false,NEAR WEST SIDE,K-12 School,70600,1961,1,,47,1412518.4,4165479.8,,,,79,118,84.1,123.3,441.7,6.3,41.87995,-87.679167,"(41.87995, -87.679167)",2020-251470
2020,175236,,Not Submitted,4633 4645 N KEDZIE AVE,60625,0.0,false,ALBANY PARK,,52800,,,,,,,,,,,,,,,,41.97208235,-87.70234945,"(41.97208235, -87.70234945)",2020-175236
2020,117115,,Not Submitted,1733 1735 W IRVING PARK RD,60613,0.0,false,LAKE VIEW,,114450,,,,,,,,,,,,,,,,41.95402016,-87.6620278,"(41.95402016, -87.6620278)",2020-117115
2018,100733,,Exempt,840 S CANAL ST,60607,,true,NEAR WEST SIDE,,508582,,1,4610,,,,,,,,,,,,,41.87093779,-87.64012731,"(41.87093779, -87.64012731)",2018-100733
2020,104105,,Submitted Data,640  W SHERIDAN RD,60613,4.0,false,LAKE VIEW,Multifamily Housing,65918,1970,1,,91,738998.3,3130799.8,,,,63.5,87.9,65.8,90.3,281.6,4.6,41.95402016,-87.6620278,"(41.95402016, -87.6620278)",2020-104105
2020,251287,SpringHill Suites Chicago O'Hare / Hampton Inn and Suites Chicago,Submitted Data,8101 W Higgins Rd,60631,2.0,false,NORWOOD PARK,Hotel,160000,2000,1,,19,11048462,7829400.3,,,,118,244.7,126.2,260.8,2140.2,13.4,41.98515127,-87.83015397,"(41.98515127, -87.83015397)",2020-251287
2020,103314,Evergreen Tower,Not Submitted,1333  N CLEVELAND AVE,60610,0.0,false,NEAR NORTH SIDE,,86780,,,,,,,,,,,,,,,,41.9037528,-87.63558845,"(41.9037528, -87.63558845)",2020-103314
2020,251352,Tams Building -CPS,Not Submitted,501 - 505 W 35th St,60629,0.0,false,BRIDGEPORT,,73600,,,,,,,,,,,,,,,,41.830808,-87.639877,"(41.830808, -87.639877)",2020-251352
2020,156876,Newberry Library,Submitted Data,60 W Walton St,60610,0.0,false,NEAR NORTH SIDE,,200000,,,,,,,,,,,,,,,,41.90002028,-87.63060779,"(41.90002028, -87.63060779)",2020-156876
2020,251536,Altgeld Elementary-CPS,Submitted Data,1340 W 71st St,60636,2.0,false,WEST ENGLEWOOD,K-12 School,69366,1904,1,,21,1435152.1,7289270,,,,125.8,168.3,134.4,177.3,611.2,8.8,41.76532371,-87.65837324,"(41.76532371, -87.65837324)",2020-251536
2020,168225,,Submitted Data,2970 N SHERIDAN RD,60657,4.0,false,LAKE VIEW,Multifamily Housing,244440,1925,1,,93,3405630,14525287.2,,,,73.4,101.4,77.2,104.4,1303,5.3,41.93626929,-87.63934761,"(41.93626929, -87.63934761)",2020-168225
2020,251246,4950 Powhatan Bldg C,Submitted Data,4950 S Chicago Beach Dr,60615,3.0,false,KENWOOD,,167825,,,,,,,,,,,,,,,,41.80461418,-87.58446798,"(41.80461418, -87.58446798)",2020-251246
2020,250002,Arturo Velasquez Institute,Submitted Data,2800 S Western Ave,60608,3.0,false,LOWER WEST SIDE,College/University,349767,1996,1,,,5953791.6,6971400,,,,73.9,137.1,77.9,141.3,1299.5,7.4,41.84099565,-87.68627778,"(41.84099565, -87.68627778)",2020-250002
2020,162430,Providence St. Mel School,Submitted Data,119 S Central Park Blvd,60624,4.0,false,EAST GARFIELD PARK,K-12 School,187689,1929,1,,86,3124802.2,5425012.1,,,,45.6,77,49,80.3,775.8,4.1,41.87883538,-87.715548,"(41.87883538, -87.715548)",2020-162430
2020,159421,Lake Meadows 7,Submitted Data,400 E 33rd St,60616,0.0,false,DOUGLAS,,309457,,,,,,,,,,,,,,,,41.83521407,-87.61617504,"(41.83521407, -87.61617504)",2020-159421
2020,239695,1550 CA,Submitted Data,1550 N Lake Shore Dr,60610,4.0,false,NEAR NORTH SIDE,Multifamily Housing,406524,1960,1,,81,3156806.2,24867980.7,,,,77.8,97,82.8,102.1,1813.5,5,41.9109805,-87.62673635,"(41.9109805, -87.62673635)",2020-239695
2020,157602,Prairie House at Central Station,Submitted Data,1515 S Prairie Ave,60605,1.5,false,NEAR SOUTH SIDE,Multifamily Housing,403018,2001,1,,32,10323384.3,13603403.2,,,,87.6,158.2,90,159.4,2333.7,8.5,41.86170088,-87.6202348,"(41.86170088, -87.6202348)",2020-157602
2020,251237,,Submitted Data,1242 N Lake Shore Dr,60610,2.0,false,NEAR NORTH SIDE,Multifamily Housing,136591,1929,1,,45,2001486,11475810.2,,,,98.7,129.2,104.5,135.2,921.9,6.7,41.90531026,-87.62553343,"(41.90531026, -87.62553343)",2020-251237
2020,156879,Morningside North Apartments,Not Submitted,170 W Oak St,60610,0.0,false,NEAR NORTH SIDE,,243200,,,,,,,,,,,,,,,,41.90093931,-87.63406385,"(41.90093931, -87.63406385)",2020-156879
2020,251242,330 N Clinton,Submitted Data,330 N Clinton St,60661,4.0,false,NEAR WEST SIDE,Multifamily Housing,76037,2000,1,,91,1358105.6,,,,,57.9,98,59.6,99.7,335.9,5.3,41.88778801,-87.64178715,"(41.88778801, -87.64178715)",2020-251242
2020,255935,Woodlawn Station,Submitted Data,6253 S Cottage Grove Ave,60637,2.0,false,WOODLAWN,Multifamily Housing,86580,2017,1,,43,1952011.8,3710472.5,,,,65.4,108.1,67.6,110.5,501.7,5.8,41.78456,-87.61478,"(41.78456, -87.61478)",2020-255935
2020,116716,1819 S Michigan Condominium Association,Submitted Data,1819 S MICHIGAN AVE,60616,1.0,false,NEAR SOUTH SIDE,Multifamily Housing,53143,2005,1,,11,3780912.2,12504795.5,,,,141.9,206.7,147.7,212.1,1254.3,10.9,41.84550365,-87.63055693,"(41.84550365, -87.63055693)",2020-116716
2020,251461,"Washington Elementary, Harold -CPS",Submitted Data,9130 S University Ave,60619,3.0,false,BURNSIDE,K-12 School,77300,1920,1,,41,2001866.3,3969969.9,,,,77.3,126.4,81.6,131,523.3,6.8,41.72857136,-87.59664019,"(41.72857136, -87.59664019)",2020-251461
2020,176022,Gateway Centre,Submitted Data,7451 7521 N CLARK ST,60626,1.0,false,ROGERS PARK,Retail Store,78136,1980,1,,,10636057.2,599697,,,,143.8,389.2,144.8,390.3,1691.8,21.7,42.01809002,-87.67364706,"(42.01809002, -87.67364706)",2020-176022
2020,256663,630 N Franklin Condominium Association,Submitted Data,630 N Franklin St,60654,1.5,false,,Multifamily Housing,275000,2005,1,,32,6539879.4,13742321.9,,,,90.1,145.5,94.5,151.3,1750.6,7.8,41.89237,-87.636345,"(41.89237, -87.636345)",2020-256663
2020,175257,,Submitted Data,2255  S MICHIGAN AVE,60616,4.0,false,NEAR SOUTH SIDE,Office,48000,1904,1,,,97426.9,,,,,4.8,8.6,,,22.3,0.5,41.84550365,-87.63055693,"(41.84550365, -87.63055693)",2020-175257
2020,104849,,Submitted Data,660  W WRIGHTWOOD AVE,60614,3.0,false,LINCOLN PARK,Multifamily Housing,38456,1970,1,,68,1158995.8,1977413.1,,,,81.6,138.4,83.4,142.3,285.9,7.4,41.92201051,-87.65461957,"(41.92201051, -87.65461957)",2020-104849
2020,252267,Paper Place Condominiums,Not Submitted,801 S Wells St,60607,0.0,false,LOOP,,139879,,,,,,,,,,,,,,,,41.87175238,-87.6335235,"(41.87175238, -87.6335235)",2020-252267
2020,251389,"Hendricks C A, Thomas A -CPS",Submitted Data,4320 S Princeton,60609,4.0,false,FULLER PARK,K-12 School,56857,1954,1,,69,972862.6,2493320.1,,,,61,94,65.4,98.6,284.3,5,41.815727,-87.633569,"(41.815727, -87.633569)",2020-251389
2020,254571,Centrum Wicker Park,Not Submitted,1664 W Division St,60622,0.0,false,West Town,,88581,,,,,,,,,,,,,,,,41.90327181,-87.67473022,"(41.90327181, -87.67473022)",2020-254571
2020,175581,,Submitted Data,360 N STATE ST,60654,4.0,false,NEAR NORTH SIDE,Other,75940,1929,1,,,2875271.2,2330265.6,,,,68.5,138.2,69.7,139.5,572.5,7.5,41.88897886,-87.62803747,"(41.88897886, -87.62803747)",2020-175581
2020,173858,Sullivan Center,Submitted Data,6339 N Sheridan Rd,60660,,true,EDGEWATER,Mixed Use Property,130027,1967,1,,,6500319.2,,,,,50,140,50,140,1014.5,7.8,41.99781208,-87.65504913,"(41.99781208, -87.65504913)",2020-173858
2020,173774,,Submitted Data,2816 2828 N BURLING ST,60657,4.0,false,LAKE VIEW,Multifamily Housing,80576,1972,1,,90,1417133.3,1331337.6,,,,36.2,70.7,37.3,72.7,291.9,3.8,41.9398511,-87.65844752,"(41.9398511, -87.65844752)",2020-173774
2020,254996,Fletcher Jones Chicago Service (Audi),Submitted Data,1521 W NORTH AVE,60642,1.0,false,West Town,Automobile Dealership,55030,2015,1,,,4962555.8,161902.8,,,,93.1,255.6,93.1,255.6,783.1,14.2,41.91062948,-87.66609288,"(41.91062948, -87.66609288)",2020-254996
2020,251399,Park Manor Elementary -CPS,Submitted Data,7037 S Rhodes Ave,60637,2.0,false,GREATER GRAND CROSSING,K-12 School,62706,1913,1,,23,1664651.4,4664039.9,,,,100.9,152.4,110.5,162.5,507.5,8.1,41.76678503,-87.61131313,"(41.76678503, -87.61131313)",2020-251399
2020,172298,,Submitted Data,122-134 S Aberdeen St,60607,4.0,false,NEAR WEST SIDE,Multifamily Housing,139200,2015,1,,99,1595939.1,3543598.9,,,,42.8,68.2,44.8,70.6,437.3,3.6,41.87921245,-87.65673552,"(41.87921245, -87.65673552)",2020-172298
2020,159411,1130 S Michigan Ave,Submitted Data,1130 S Michigan Ave,60605,2.5,false,LOOP,Multifamily Housing,810159,1967,1,,60,15394169.5,40738355.7,,,,78.3,119.7,81.6,123.4,4566.4,6.4,41.86850103,-87.62470375,"(41.86850103, -87.62470375)",2020-159411
2020,103310,,Submitted Data,1336 1352 N SEDGWICK ST,60610,3.0,false,NEAR NORTH SIDE,Multifamily Housing,583000,1929,10,,69,11024196.2,43612026.6,,,,93.7,131.5,98.2,135.9,4037,6.9,41.9037528,-87.63558845,"(41.9037528, -87.63558845)",2020-103310
2020,119552,"Jewel Osco, 03344-Roosevelt & Ashland",Submitted Data,1220 S Ashland Ave,60608,2.0,false,NEAR WEST SIDE,Supermarket/Grocery Store,63407,2002,1,,47,10120207.2,4681600.1,,,,233.4,524.4,236.2,525.8,1828.1,28.8,41.86590325,-87.66859961,"(41.86590325, -87.66859961)",2020-119552
2020,254023,,Submitted Data,831 43 W Adams St,60607,3.5,false,Near West Side,Multifamily Housing,104076,1899,1,,71,1797881.7,5165909.8,,,,66.9,100.5,70.1,103.5,555,5.3,41.8742951,-87.65018,"(41.8742951, -87.65018)",2020-254023
2020,160293,33 W Ontario Condominium Association,Submitted Data,33 W Ontario St,60654,4.0,false,NEAR NORTH SIDE,Multifamily Housing,1210471,2003,1,,88,21300474.5,28702301.1,,,,47.9,86.1,50.1,88.7,4848.9,4.6,41.89324294,-87.62922972,"(41.89324294, -87.62922972)",2020-160293
2020,173870,,Submitted Data,1061  W ROSEMONT AVE,60660,4.0,false,EDGEWATER,Multifamily Housing,80500,1927,1,,92,1221577.8,4417955.7,,,,70.1,100.1,76.6,107,425.3,5.3,41.99090057,-87.66660744,"(41.99090057, -87.66660744)",2020-173870
2020,241892,CityView Condominium Association,Submitted Data,440 N McClurg Ct,60611,4.0,false,NEAR NORTH SIDE,Multifamily Housing,620690,1991,1,,83,10359889.6,20637320.7,,,,61.1,100,63.9,102.5,2713,5.4,41.89028754,-87.61815831,"(41.89028754, -87.61815831)",2020-241892
2020,103656,Merchandise Mart,Submitted Data,222 Merchandise Mart Plz,60654,,true,NEAR NORTH SIDE,Office,4259185,1930,1,,,97554926.2,76248400.9,,31458239.1,,49.7,92.4,51.3,94.1,20933.1,5.1,41.88798761,-87.63534171,"(41.88798761, -87.63534171)",2020-103656
2020,175817,Forman Mills/Espace,Submitted Data,1450 N Cicero Ave,60651,4.0,false,AUSTIN,Other - Mall,87000,1980,1,,,2321091.5,2523139.2,,,,55.7,105.2,,,496.3,5.7,41.90734776,-87.74608809,"(41.90734776, -87.74608809)",2020-175817
2020,250154,Hektoen Building,Exempt,627 S Wood St,60612,,true,NEAR WEST SIDE,,184535,,,,,,,,,,,,,,,,41.87342661,-87.67117128,"(41.87342661, -87.67117128)",2020-250154
2020,252301,1934 N Washtenaw Condominium Association,Submitted Data,1934 N Washtenaw Ave,60647,4.0,false,LOGAN SQUARE,Multifamily Housing,122864,2001,1,,86,1939674.2,2415054,,,,51.8,94.8,52.7,94.8,431,5.1,41.91657013,-87.69476694,"(41.91657013, -87.69476694)",2020-252301
2020,255020,Ace Hotel Chicago,Submitted Data,311 N MORGAN ST,60607,4.0,false,Near West Side,Hotel,140429,2017,1,,62,7992883.7,5534244.1,,,,105.3,219.5,107.9,222.2,1541.4,12,41.88717109,-87.65213461,"(41.88717109, -87.65213461)",2020-255020
2020,103816,AMA Plaza,Submitted Data,330 N Wabash Av,60611,4.0,false,NEAR NORTH SIDE,Office,1881319,1971,1,,75,84953984.2,41766636.5,,38836417.4,,88.5,169.5,90,172.8,18346.7,9.8,41.88863693,-87.62751976,"(41.88863693, -87.62751976)",2020-103816
2020,252024,CICS Loomis,Submitted Data,9535 S Loomis St,60643,4.0,false,WASHINGTON HEIGHTS,K-12 School,150000,1961,1,,69,1052673.7,3295800,,,,83,122.3,87.4,126.9,339.3,6.5,41.72018758,-87.65671845,"(41.72018758, -87.65671845)",2020-252024
2020,104635,,Not Submitted,1900 1912 W PRATT BLVD,60626,0.0,false,ROGERS PARK,,65128,,,,,,,,,,,,,,,,42.01036185,-87.66829765,"(42.01036185, -87.66829765)",2020-104635
2020,126126,Pete's Kedgie,Submitted Data,4700 S Kedzie Ave,60632,3.0,false,BRIGHTON PARK,Supermarket/Grocery Store,104000,1990,,,46,8478849.5,4921832.6,,,,248.2,535.3,251.9,539.2,1584.7,29.3,41.80740022,-87.70533038,"(41.80740022, -87.70533038)",2020-126126
2018,103593,St. Edmund's Tower,Not Submitted,6145 S MICHIGAN AVE,60637,0.0,false,WASHINGTON PARK,,69832,,1,2043,,,,,,,,,,,,,41.78046327,-87.6053081,"(41.78046327, -87.6053081)",2018-103593
2020,173724,Arthur J. Schmitt Academic Center,Submitted Data,2320 N Kenmore Ave,60614,4.0,false,LINCOLN PARK,College/University,164408,1967,1,,,2736847.9,9923134.1,,,,77,110,83.3,116.6,954.2,5.8,41.92408465,-87.65537041,"(41.92408465, -87.65537041)",2020-173724
2020,182200,,Submitted Data,5301 5317 S HYDE PARK BLVD,60615,3.0,false,HYDE PARK,Multifamily Housing,238232,1918,1,,,7953976.5,5065255.2,,,,54.6,115.8,56.7,120.3,1510.4,6.3,41.79901055,-87.5834949,"(41.79901055, -87.5834949)",2020-182200
2020,114252,,Submitted Data,607  W WRIGHTWOOD AVE,60614,4.0,false,LINCOLN PARK,Multifamily Housing,81250,1974,1,,82,1562423.1,4253795.9,,,,80.8,122.8,84.4,125.5,469.8,6.5,41.92201051,-87.65461957,"(41.92201051, -87.65461957)",2020-114252
2020,132904,Edens Office,Submitted Data,4801 W Peterson Ave,60646,4.0,false,FOREST GLEN,Office,91200,1974,1,,95,1358753,2628173.3,,,,43.7,72,,,351.7,3.9,41.98985293,-87.74879114,"(41.98985293, -87.74879114)",2020-132904
2020,147625,,Submitted Data,828  W GRACE ST,60613,4.0,false,LAKE VIEW,Multifamily Housing,288535,2007,1,,92,4263649,8248096.4,,,,56.5,93.1,58.3,94.9,1103.5,5,41.95402016,-87.6620278,"(41.95402016, -87.6620278)",2020-147625
2020,256490,,Submitted Data,5427 N Broadway St,60640,3.0,false,EDGEWATER,Multifamily Housing,93960,1910,3,,63,1413403.9,4834511.6,,,,71,102.7,73.8,105,477.4,5.4,41.97459,-87.66273,"(41.97459, -87.66273)",2020-256490
2020,251563,Castellanos Elementary -CPS,Submitted Data,2524 S Central Ave,60623,4.0,false,AUSTIN,K-12 School,84116,1912,1,,91,1010908.5,2449380,,,,41.1,64.2,43.9,67.1,287.9,3.4,41.869894,-87.764317,"(41.869894, -87.764317)",2020-251563
2020,157152,Metro,Submitted Data,1200 W MONROE,60607,4.0,false,NEAR WEST SIDE,Multifamily Housing,314000,2001,1,,97,4911168,10320226.1,,,,54.2,87.5,56.5,89.6,1314.6,4.7,41.88080894,-87.65745938,"(41.88080894, -87.65745938)",2020-157152
2020,101776,Hyatt Regency Chicago,Submitted Data,151 E Wacker Dr,60601,4.0,false,LOOP,Hotel,2295495,1974,1,,93,50754797.4,99737806.5,,,,74.4,122,76.9,124.7,13218.8,6.5,41.88770297,-87.62267404,"(41.88770297, -87.62267404)",2020-101776
2020,251544,Peck Elementary-CPS,Submitted Data,3826 W 58th St,60629,3.5,false,WEST ELSDON,K-12 School,110691,1926,1,,54,2671453.5,4498029.7,,,,64.8,110.2,67.6,113.9,655.8,5.9,41.78841222,-87.71972596,"(41.78841222, -87.71972596)",2020-251544
2020,175365,College of Education Building,Submitted Data,2247 N Halstead Ave,60614,4.0,false,LINCOLN PARK,College/University,51170,2000,1,,,3099699.9,3468,,,,60.6,169.7,60.6,169.7,484,9.5,41.92266329,-87.648639,"(41.92266329, -87.648639)",2020-175365
2020,105339,,Not Submitted,5306  N CUMBERLAND AVE,60656,0.0,false,OHARE,,102580,,,,,,,,,,,,,,,,41.97087009,-87.79892589,"(41.97087009, -87.79892589)",2020-105339
2020,251447,Foster Park Elementary -CPS,Submitted Data,8500 S Wood,60620,2.0,false,AUBURN GRESHAM,K-12 School,68005,1937,1,,30,2688278.2,1924759.9,,,,67.8,140.4,72.7,149,521.8,7.7,41.73927,-87.668041,"(41.73927, -87.668041)",2020-251447
2020,244600,One Museum Park West,Submitted Data,1201 S Prairie Ave,60605,2.5,false,NEAR SOUTH SIDE,Multifamily Housing,809005,2008,1,,53,19985281.4,29349962.5,,,,75.7,133.2,79.7,138.6,4678,7.2,41.86712211,-87.62162242,"(41.86712211, -87.62162242)",2020-244600
2020,251607,"Nash Elementary, Henry H -CPS",Submitted Data,4837 W Erie St,60644,3.0,false,AUSTIN,K-12 School,108716,1895,1,,45,2960821.7,5304000.2,,,,76,127.5,82.3,137,743.8,6.8,41.89203698,-87.7473847,"(41.89203698, -87.7473847)",2020-251607
2020,120931,,Submitted Data,10 S STATE ST,60603,4.0,false,LOOP,Retail Store,56109,1970,1,,,470015,,,,,8.4,23.5,8.4,23.5,73.4,1.3,41.88127065,-87.62814571,"(41.88127065, -87.62814571)",2020-120931
2020,106101,,Submitted Data,443 447 W WRIGHTWOOD AVE,60614,4.0,false,LINCOLN PARK,Multifamily Housing,90140,1928,1,,79,1473997.6,7220577.3,,,,96.5,129.9,100.8,133.7,613.6,6.8,41.92201051,-87.65461957,"(41.92201051, -87.65461957)",2020-106101
2020,160294,Adler Place,Submitted Data,1629 S Prairie Ave,60616,3.0,false,NEAR SOUTH SIDE,Multifamily Housing,554648,2013,1,,69,10328131,20819901,,,,81.1,132.2,84.7,135.4,2717.7,7.1,41.85950051,-87.62036992,"(41.85950051, -87.62036992)",2020-160294
2020,120015,Chicago Indoor Sports,Not Submitted,3900 S Ashland Ave,60609,0.0,false,NEW CITY,,341000,,,,,,,,,,,,,,,,41.82265783,-87.66665991,"(41.82265783, -87.66665991)",2020-120015
2020,105315,,Submitted Data,468  W MELROSE ST,60657,4.0,false,LAKE VIEW,Multifamily Housing,59960,1961,1,,94,750049.7,2875736.9,,,,65.4,92.3,69.9,97.1,269.8,4.9,41.9398511,-87.65844752,"(41.9398511, -87.65844752)",2020-105315
2020,251561,New Field Primary -CPS,Submitted Data,1707 W Morse Ave,60626,2.0,false,ROGERS PARK,K-12 School,85500,2003,1,,22,3362431,3725970.1,,,,82.9,155.9,87.8,161,722.7,8.5,42.00735706,-87.6727274,"(42.00735706, -87.6727274)",2020-251561
2020,160322,210 N Wells St,Submitted Data,210 N Wells St,60606,2.0,false,LOOP,Multifamily Housing,597377,2011,1,,19,18187731,10554205.5,,,,74.1,159.9,76.4,163.6,3399.1,8.8,41.886028,-87.633976,"(41.886028, -87.633976)",2020-160322
2020,126141,,Not Submitted,839 W 79TH ST,60620,0.0,false,AUBURN GRESHAM,,67068,,,,,,,,,,,,,,,,41.75038125,-87.64569148,"(41.75038125, -87.64569148)",2020-126141
2020,252084,Trinity United Church of Christ,Exempt,400 W 95th St,60628,,true,WASHINGTON HEIGHTS,,78501,,,,,,,,,,,,,,,,41.72088045,-87.63412049,"(41.72088045, -87.63412049)",2020-252084
2018,172448,,Exempt,100 118 N PULASKI RD,60624,,true,WEST GARFIELD PARK,,123991,,1,,,,,,,,,,,,,,41.8808242,-87.72327934,"(41.8808242, -87.72327934)",2018-172448
2020,229057,Park View Towers,Submitted Data,2740 N PINE GROVE AVE,60614,1.0,false,LINCOLN PARK,Multifamily Housing,86222,1975,1,,18,5533097.1,1390332.6,,,,80.3,196.6,84.3,205.5,937.4,10.9,41.93214333,-87.64141628,"(41.93214333, -87.64141628)",2020-229057
2020,251652,Hedges Elementary -CPS,Submitted Data,4735 S Winchester Ave,60609,3.0,false,NEW CITY,K-12 School,101940,1906,1,,48,2079177.6,5946629.6,,,,78.7,118.4,84.3,124.2,640.4,6.3,41.80724939,-87.67297316,"(41.80724939, -87.67297316)",2020-251652
2020,256542,,Not Submitted,5525 W Diversey Ave,60639,0.0,false,Belmont Cragin,,72000,,,,,,,,,,,,,,,,41.91864,-87.7553504,"(41.91864, -87.7553504)",2020-256542
2020,232398,The Carlyle Condominium Association,Submitted Data,1040 N Lake Shore Dr,60611,3.5,false,NEAR NORTH SIDE,Multifamily Housing,562627,1966,1,,71,17321614.8,,,,,48.1,110.8,50.2,116.1,3069.2,6.1,41.90200586,-87.62471982,"(41.90200586, -87.62471982)",2020-232398
2020,252072,641 W Lake St,Submitted Data,641 W Lake St,60661,4.0,false,NEAR WEST SIDE,Office,112458,1903,1,,99,1356461.1,1713676.7,,,,27.3,49.8,28.7,51.3,302.7,2.7,41.88538531,-87.6445013,"(41.88538531, -87.6445013)",2020-252072
2020,256555,,Submitted Data,2350 N Lincoln Ave,60614,1.0,false,Lincoln Park,Office,57566,2019,1,,,3608674.2,986191.2,,,,79.8,193.5,79.8,193.5,615.6,10.7,41.922195,-87.64960715,"(41.922195, -87.64960715)",2020-256555
2020,105785,Poinsettia Apartments,Not Submitted,5528 5530 S HYDE PARK BLVD,60637,0.0,false,HYDE PARK,,67103,,,,,,,,,,,,,,,,41.78046327,-87.6053081,"(41.78046327, -87.6053081)",2020-105785
2020,175479,,Not Submitted,5856 5860 N BROADWAY,60660,0.0,false,EDGEWATER,,95165,,,,,,,,,,,,,,,,41.99090057,-87.66660744,"(41.99090057, -87.66660744)",2020-175479
2020,227642,Granville Beach Condominiums,Not Submitted,6171 N Sheridan Rd,60660,0.0,false,EDGEWATER,,395000,,,,,,,,,,,,,,,,41.99444431,-87.65487158,"(41.99444431, -87.65487158)",2020-227642
2020,253955,550 W. Fulton Condominium Association,Submitted Data,550 W Fulton,60661,4.0,false,NEAR WEST SIDE,Multifamily Housing,76037,1999,1,,87,1231906,,,,,66.6,103.7,69.6,106.7,352.6,5.5,41.8832102,-87.64337484,"(41.8832102, -87.64337484)",2020-253955
2020,120518,,Submitted Data,3500  S GILES AVE,60653,4.0,false,DOUGLAS,Residential Care Facility,70455,1974,1,,,2374121.1,6678890.5,,,,128.5,193.9,132.8,196.9,725.3,10.3,41.82021138,-87.61246867,"(41.82021138, -87.61246867)",2020-120518
2020,231775,Quadrangle House,Submitted Data,6700 S Shore Dr,60649,1.0,false,SOUTH SHORE,Multifamily Housing,322820,1968,1,,11,5094886.3,27136950.6,,,,146,193.6,155,203.1,2236.5,10.1,41.77303762,-87.56716244,"(41.77303762, -87.56716244)",2020-231775
2020,104285,,Submitted Data,528 534 W ALDINE AVE,60657,2.5,false,LAKE VIEW,Multifamily Housing,52400,1966,1,,57,746150.6,3562950.5,,,,82.2,111.3,84.5,113.2,305.7,5.8,41.9398511,-87.65844752,"(41.9398511, -87.65844752)",2020-104285
2020,251687,Peirce Sch Of Intl Studies -CPS,Submitted Data,1423 W Bryn Mawr Ave,60660,3.0,false,EDGEWATER,K-12 School,133238,1915,1,,50,3162841.2,6318939.5,,,,71.2,116.3,78.8,124.3,829.3,6.2,41.98305225,-87.66613248,"(41.98305225, -87.66613248)",2020-251687
2020,251690,Chicago Military Academy-Bronzeville -CPS,Submitted Data,3533 S Giles Ave,60653,4.0,false,DOUGLAS,K-12 School,121900,1915,1,,83,2174158.8,4221609.6,,,,52.5,86.3,57.7,91.8,563.5,4.6,41.83033232,-87.61897054,"(41.83033232, -87.61897054)",2020-251690
2020,160304,The Tides at Lakeshore East,Submitted Data,360 E South Water St,60601,2.0,false,LOOP,Multifamily Housing,615718,2007,1,,43,13922609.3,30171568.4,,,,91,145.8,94.9,149.4,3775.4,7.8,41.88673545,-87.61817365,"(41.88673545, -87.61817365)",2020-160304
2020,100623,,Not Submitted,1345 1359 W ESTES AVE,60626,0.0,false,ROGERS PARK,,76125,,,,,,,,,,,,,,,,42.01036185,-87.66829765,"(42.01036185, -87.66829765)",2020-100623
2020,175493,,Not Submitted,4812 4846 N CLARK ST,60640,0.0,false,UPTOWN,,191541,,,,,,,,,,,,,,,,41.97223008,-87.6645957,"(41.97223008, -87.6645957)",2020-175493
2020,173835,Sears,Not Submitted,1900 W Lawrence Ave,60640,0.0,false,LINCOLN SQUARE,,154471,,,,,,,,,,,,,,,,41.9690756,-87.67696468,"(41.9690756, -87.67696468)",2020-173835
2020,142759,,Submitted Data,124  W POLK ST,60605,1.5,false,LOOP,Multifamily Housing,108010,1993,1,,38,4667489.7,1058113.8,,,,53,131.3,56.2,139.8,784.7,7.3,41.86863212,-87.62730687,"(41.86863212, -87.62730687)",2020-142759
2020,173776,,Not Submitted,331  W OAKDALE AVE,60657,0.0,false,LAKE VIEW,,50286,,,,,,,,,,,,,,,,41.9398511,-87.65844752,"(41.9398511, -87.65844752)",2020-173776
2020,101559,IL0303ZZ - Metcalf Federal Bldg,Submitted Data,77 W Jackson,60604,4.0,false,LOOP,Office,868473,1991,1,,86,31159545,,,,,37.6,105.4,37.6,105.4,4863,5.9,41.87755536,-87.6304139,"(41.87755536, -87.6304139)",2020-101559
2020,252034,Center Home For Hispanic Elderly,Submitted Data,1401 N California Ave,60622,2.0,false,WEST TOWN,Senior Living Community,75000,1925,1,,41,1932526.3,10748000,,,,169.1,222.6,173.2,226.6,872.5,11.6,41.90676046,-87.69632541,"(41.90676046, -87.69632541)",2020-252034
2020,243071,1620 S. Michigan Ave Condo Association,Submitted Data,1620 S Michigan Ave,60616,0.0,false,NEAR SOUTH SIDE,Multifamily Housing,306737,2006,1,,,,14247000,,,,,,,,,,41.85946307,-87.62429935,"(41.85946307, -87.62429935)",2020-243071
2020,128870,Former Sears store,Not Submitted,1334 E 79TH ST,60619,0.0,false,AVALON PARK,,70887,,,,,,,,,,,,,,,,41.75163427,-87.59179486,"(41.75163427, -87.59179486)",2020-128870
2020,147685,,Submitted Data,30  W ERIE ST,60654,2.5,false,NEAR NORTH SIDE,Multifamily Housing,72842,2006,1,,37,2355624.3,2425874.4,,,,81.8,156.4,86.3,161.9,496.5,8.5,41.89198218,-87.63699623,"(41.89198218, -87.63699623)",2020-147685
2020,102725,,Submitted Data,3656  W HURON ST,60624,1.0,false,HUMBOLDT PARK,Senior Living Community,70370,2009,1,,19,1753054.9,4233200,,,,85.1,132.9,89.3,137,498.4,7.1,41.8808242,-87.72327934,"(41.8808242, -87.72327934)",2020-102725
2020,159091,Continental Plaza Apartments,Submitted Data,1330 1358 W 76th St,60620,2.5,false,AUBURN GRESHAM,Multifamily Housing,203603,2006,1,,33,5918667.3,4405600.4,,,,51.4,104.8,51.9,105.4,1157.7,5.7,41.756041,-87.656765,"(41.756041, -87.656765)",2020-159091
2020,240215,757 Orleans at Chicago Condominium,Submitted Data,757 N Orleans St,60654,2.0,false,NEAR NORTH SIDE,Multifamily Housing,412335,2008,1,,50,4816679.3,25776196.7,,,,96.2,127.5,100.5,132.1,2120.8,6.7,41.89626597,-87.63667376,"(41.89626597, -87.63667376)",2020-240215
2020,256568,Vista Tower,Not Submitted,363 E Wacker Dr,60601,0.0,false,Loop,,1782886,,,,,,,,,,,,,,,,41.886495,-87.618105,"(41.886495, -87.618105)",2020-256568
2020,160243,,Submitted Data,765 W Adams St,60661,2.5,false,NEAR WEST SIDE,Multifamily Housing,475674,2015,1,,51,13254349.4,10513252.6,,,,67.5,136.8,69.6,139.9,2627,7.5,41.87911301,-87.64651787,"(41.87911301, -87.64651787)",2020-160243
2020,255013,Kenect Chicago,Submitted Data,504 N GREEN ST,60642,2.0,false,West Town,Multifamily Housing,125549,2018,1,,20,6101379.6,5147367.2,,,,89.6,179.1,93,184.3,1225.6,9.8,41.89142613,-87.64880834,"(41.89142613, -87.64880834)",2020-255013
2020,244593,111 E Chestnut Condominium Association,Submitted Data,111 E Chestnut St,60611,3.0,false,NEAR NORTH SIDE,Multifamily Housing,672000,1970,1,,42,22604027.9,12209078.2,,,,59.2,129.4,62.5,137.6,4176.3,7.1,41.89798276,-87.62522385,"(41.89798276, -87.62522385)",2020-244593
2020,116413,CASL Senior Housing,Submitted Data,2108  S PRINCETON AVE,60616,3.0,false,ARMOUR SQUARE,Multifamily Housing,81994,1997,1,,48,1298132.9,5685877.5,,,,102.3,140.7,108,146.7,504.6,7.4,41.84550365,-87.63055693,"(41.84550365, -87.63055693)",2020-116413
2020,256762,,Not Submitted,24 East Washington Street,60602,0.0,false,,,700394,,,,,,,,,,,,,,,,41.88325,-87.631495,"(41.88325, -87.631495)",2020-256762
2020,174203,,Submitted Data,5009  N SHERIDAN RD,60640,2.5,false,UPTOWN,Multifamily Housing,160000,1920,1,,53,5860089.4,3328385.2,,,,57.4,124.4,60.3,129.9,1091.4,6.8,41.97223008,-87.6645957,"(41.97223008, -87.6645957)",2020-174203
2020,159573,The Patricians,Submitted Data,401 411 W FULLERTON PKWY,60614,2.0,false,LINCOLN PARK,Multifamily Housing,189852,1927,1,,50,3430114.5,17454700,,,,110,147.1,114.9,152.3,1462.4,7.7,41.92527418,-87.63936489,"(41.92527418, -87.63936489)",2020-159573
2020,103052,,Not Submitted,825 835 W CORNELIA AVE,60657,0.0,false,LAKE VIEW,,74452,,,,,,,,,,,,,,,,41.9398511,-87.65844752,"(41.9398511, -87.65844752)",2020-103052
2020,251783,Our Lady of Victory Parish,Submitted Data,5212 W Agatite,60630,0.0,false,PORTAGE PARK,Other,120233,1927,5,,,310642.4,,,,,,,,,,,41.96182789,-87.75824707,"(41.96182789, -87.75824707)",2020-251783
2020,157346,,Submitted Data,5236 5252 S HYDE PARK BLVD,60615,4.0,false,HYDE PARK,Multifamily Housing,137394,1928,1,,88,819511.3,8827499.7,,,,70.2,84.2,74.9,89.4,596.8,4.3,41.80224043,-87.60332678,"(41.80224043, -87.60332678)",2020-157346
2020,251568,Vaughn Occupational HS -CPS,Submitted Data,4355 N Linder Ave,60641,2.0,false,PORTAGE PARK,K-12 School,50289,1920,1,,24,1996204.9,2772279.7,,,,94.8,169,100.9,174.1,458.8,9.1,41.96026421,-87.76436775,"(41.96026421, -87.76436775)",2020-251568
2020,252250,Argyle Apartments,Submitted Data,840 850 W Argyle St,60640,3.5,false,UPTOWN,Multifamily Housing,65492,1951,1,,53,968509.8,5458012.2,,,,108.9,143.1,115.4,149.9,441.1,7.5,41.97338532,-87.65197698,"(41.97338532, -87.65197698)",2020-252250
2020,172611,Saint Mary of the Angels Parish,Submitted Data,1850 N Hermitage Ave,60622,3.0,false,LOGAN SQUARE,Other,72186,1899,5,,,814991.9,5337580.1,,,,85.2,109.3,91.7,116.6,410.7,5.7,41.91573465,-87.67209343,"(41.91573465, -87.67209343)",2020-172611
2020,140247,,Submitted Data,3443  W ADDISON ST,60618,1.0,false,AVONDALE,Retail Store,138000,1925,2,,,4212810.3,1622800,,,,153.6,355.3,153.6,355.3,743.7,19.6,41.94672055,-87.70319673,"(41.94672055, -87.70319673)",2020-140247
2020,113540,,Submitted Data,1  E SCHILLER ST,60610,3.5,false,NEAR NORTH SIDE,Multifamily Housing,167500,1964,1,,56,6903308.2,1280509.7,,,,50.7,128,53.6,136.1,1145.4,7.1,41.9037528,-87.63558845,"(41.9037528, -87.63558845)",2020-113540
2020,242935,The New York Private Residences,Submitted Data,3660 N Lake Shore Dr,60613,4.0,false,LAKE VIEW,Multifamily Housing,748762,1987,1,,67,16990289.1,26078721.6,,,,69,120.1,71.8,123,4036.8,6.5,41.94952976,-87.64585718,"(41.94952976, -87.64585718)",2020-242935
2020,255009,The Hudson,Submitted Data,750 N HUDSON AVE,60654,2.5,false,Near North Side,Multifamily Housing,385917,2017,1,,59,10638185.8,6939454,,,,59.7,125.9,62,129.3,2028.9,6.9,41.89622411,-87.64008035,"(41.89622411, -87.64008035)",2020-255009
2020,117167,,Submitted Data,4848  N KEDZIE AVE,60625,3.5,false,ALBANY PARK,Multifamily Housing,55125,1983,1,,54,1947726.4,2000410.7,,,,71.6,137,78.5,151.2,410.2,7.4,41.97208235,-87.70234945,"(41.97208235, -87.70234945)",2020-117167
2020,243547,Admiral's Pointe Condominium Association,Submitted Data,645 N Kingsbury St,60654,1.0,false,NEAR NORTH SIDE,Multifamily Housing,291682,2001,1,,23,5047596.5,14493481.4,,4326312.2,,112.5,156.9,116.8,161.5,1785.6,8.4,41.89320332,-87.64119962,"(41.89320332, -87.64119962)",2020-243547
2020,252240,Presence Center for Advanced Care,Submitted Data,331 W Surf St,60657,,true,LAKE VIEW,Medical Office,373881,2015,1,,,14724772.5,16945256.2,,,,132,246,133.3,247.3,3198.1,13.3,41.93430593,-87.6384177,"(41.93430593, -87.6384177)",2020-252240
2018,175521,5460 5470 S HARPER AVE,Not Submitted,5460 5470 S HARPER AVE,60615,0.0,false,HYDE PARK,,68515,,1,789,,,,,,,,,,,,,41.80224043,-87.60332678,"(41.80224043, -87.60332678)",2018-175521
2020,159529,700 N Michigan Ave LLC,Exempt,700 N Michigan Ave,60611,,true,NEAR NORTH SIDE,Retail Store,205137,2000,1,,4,16000311.9,900600,,,,95.7,259,96.8,260.2,2545,14.4,41.89533925,-87.62493853,"(41.89533925, -87.62493853)",2020-159529
2020,113617,1418 N Lake Shore Dr Condo Association,Submitted Data,1418  N LAKE SHORE DR,60610,2.5,false,NEAR NORTH SIDE,Multifamily Housing,105775,1983,1,,39,3983046.2,,,,,70,146.6,74.3,155.7,765.3,8,41.9037528,-87.63558845,"(41.9037528, -87.63558845)",2020-113617
2020,175157,,Submitted Data,829 S WABASH AVE,60605,3.0,false,LOOP,Multifamily Housing,270321,2013,4,,62,4565041,4551767,,,,57,109.8,58.3,110.4,954.2,6,41.86863212,-87.62730687,"(41.86863212, -87.62730687)",2020-175157
2020,255965,5430 N. Sheridan,Submitted Data,5430 N. Sheridan Rd.,60640,2.5,false,EDGEWATER,Multifamily Housing,82133,2008,1,,59,1517835,3708784.8,,,,86.7,135,90,138.8,433.9,7.2,41.96846,-87.65661,"(41.96846, -87.65661)",2020-255965
2020,256534,,Not Submitted,811 W Agatite Ave,60640,0.0,false,Uptown,,391791,,,,,,,,,,,,,,,,41.97459,-87.66273,"(41.97459, -87.66273)",2020-256534
2020,106159,,Submitted Data,101 113 W DIVISION ST,60610,3.5,false,NEAR NORTH SIDE,Multifamily Housing,58000,1932,1,,74,3045582.5,2130219.1,,,,89.2,185.6,89.2,185.6,588.5,10.1,41.9037528,-87.63558845,"(41.9037528, -87.63558845)",2020-106159
2020,105697,Dearborn Plaza,Submitted Data,1030 1032 N DEARBORN ST,60610,4.0,false,NEAR NORTH SIDE,Multifamily Housing,79152,1929,1,,89,1353356.2,7395500.2,,,,110.5,146,115.9,151.6,604,7.6,41.9037528,-87.63558845,"(41.9037528, -87.63558845)",2020-105697
2020,137104,,Not Submitted,1503 1509 S STATE ST,60605,0.0,false,NEAR SOUTH SIDE,,161484,,,,,,,,,,,,,,,,41.86863212,-87.62730687,"(41.86863212, -87.62730687)",2020-137104
2020,251595,Nixon -CPS,Submitted Data,2121 N Keeler Ave,60639,2.5,false,HERMOSA,K-12 School,130113,1896,1,,40,2983524.5,7730230,,,,82.3,126.6,88,132.2,876.2,6.7,41.91952065,-87.73118053,"(41.91952065, -87.73118053)",2020-251595
2020,175949,"Target, Bedford Park (0841)",Submitted Data,7100 S Cicero Ave,60629,3.0,false,"outside Chicago, in Bedford Park",Retail Store,425352,1993,1,,70,6597050.4,2418400,,,,71.9,167.6,74.3,169.6,1158,9.2,41.76424143,-87.74194078,"(41.76424143, -87.74194078)",2020-175949
2020,251508,Polaris Charter Academy Elementary School - CPS,Not Submitted,620 N Sawyer Ave,60624,0.0,false,HUMBOLDT PARK,,80000,,,,,,,,,,,,,,,,41.89229745,-87.70807059,"(41.89229745, -87.70807059)",2020-251508
2020,101745,161 North Clark,Submitted Data,161 N Clark,60601,4.0,false,LOOP,Office,1253060,1992,1,,72,69734848.1,,,,,58.1,162.6,58.1,162.6,10883.5,9.1,41.88490511,-87.6305179,"(41.88490511, -87.6305179)",2020-101745
2020,160438,155 North Wacker,Submitted Data,155 N Wacker Dr,60606,3.5,false,LOOP,Office,1484327,2009,1,,77,61273705.5,,,25472818.6,,61.7,138.5,62.9,142.8,10905.4,7.8,41.884658,-87.636809,"(41.884658, -87.636809)",2020-160438
2020,159111,Chicago Lakeshore Hospital,Exempt,4840 N Marine Dr,60640,,true,UPTOWN,,51140,,,,,,,,,,,,,,,,41.97030477,-87.65057835,"(41.97030477, -87.65057835)",2020-159111
2020,255933,,Exempt,9 W Walton St,60610,,true,NEAR NORTH SIDE,,78199,,,,,,,,,,,,,,,,41.9056301,-87.6322449,"(41.9056301, -87.6322449)",2020-255933
2020,251258,,Submitted Data,707 W Sheridan Rd,60613,3.5,false,LAKE VIEW,Multifamily Housing,101428,1974,1,,77,2010630.2,6051384.1,,,,79.5,118.2,82.2,121,635.2,6.3,41.95246586,-87.64839822,"(41.95246586, -87.64839822)",2020-251258
2020,172379,Greek Islands (200 S Halsted),Submitted Data,200 210 S HALSTED ST,60661,2.5,false,NEAR WEST SIDE,Office,115232,1913,1,,38,8407942.3,5928128.5,,,,124.4,258.3,127.6,267.4,1627.1,14.1,41.87880098,-87.64729762,"(41.87880098, -87.64729762)",2020-172379
2020,131236,CoreSite,Submitted Data,427 S LaSalle St,60605,4.0,false,LOOP,Data Center,160000,1919,1,,98,117139297.4,,,,,732.1,2049.9,732.1,2049.9,18281.8,114.3,41.876267,-87.63166,"(41.876267, -87.63166)",2020-131236
2020,159156,One East Delaware,Submitted Data,1 E Delaware Pl,60611,2.5,false,NEAR NORTH SIDE,Multifamily Housing,596499,1989,1,,55,12138782.8,19527201,,,,62.5,107.6,64.8,109.5,2931.7,5.8,41.89877964,-87.6278525,"(41.89877964, -87.6278525)",2020-159156
2020,105725,,Not Submitted,7000 7008 S SOUTH SHORE DR,60649,0.0,false,SOUTH SHORE,,205000,,,,,,,,,,,,,,,,41.76259226,-87.57231648,"(41.76259226, -87.57231648)",2020-105725
2020,251517,Skinner North / Schiller Middle -CPS,Submitted Data,650 W Scott,60610,4.0,false,NEAR NORTH SIDE,K-12 School,68922,1961,1,,72,871625.7,3620700,,,,65.2,90.6,69,94.6,328.3,4.8,41.905065,-87.644522,"(41.905065, -87.644522)",2020-251517
2020,254047,Sabina Senior Housing Corporation (St. Sabina Elders Village),Submitted Data,1222 W 79th St,60620,1.5,false,Auburn Gresham,Multifamily Housing,86040,2000,1,,38,1835819.8,4985198.6,,,,88.1,134,88.1,134,551.3,7.1,41.73979805,-87.65349931,"(41.73979805, -87.65349931)",2020-254047
2020,172685,Washington Square-North and Cicero Development LLC,Submitted Data,4821 - 4951 W North Ave,60639,1.5,false,AUSTIN,Supermarket/Grocery Store,179477,2008,1,,35,9747304.9,4150779.7,,,,239.4,545.2,243.9,549.9,1741.7,30,41.9083292,-87.74766344,"(41.9083292, -87.74766344)",2020-172685
2020,251241,212 East Condominium,Submitted Data,212 E Cullerton St,60616,4.0,false,NEAR SOUTH SIDE,Multifamily Housing,181723,2003,1,,97,2740381.9,4274849.5,,,,46.7,81,48.1,82.8,654.7,4.4,41.85554,-87.621981,"(41.85554, -87.621981)",2020-251241
2020,101894,,Exempt,7600 7612 S SOUTH SHORE DR,60649,,true,SOUTH SHORE,,92966,,,,,,,,,,,,,,,,41.76259226,-87.57231648,"(41.76259226, -87.57231648)",2020-101894
2020,173632,The Chicago Building,Submitted Data,7 W Madison St,60602,3.0,false,LOOP,Residence Hall/Dormitory,104965,1904,1,,67,2554315,5914599.6,,1096799.9,,91.1,136.8,94.6,140.5,793.8,7.6,41.88201315,-87.62821922,"(41.88201315, -87.62821922)",2020-173632
2020,251576,"Henry Elementary, Patrick -CPS",Submitted Data,4250 N St Louis Ave,60618,4.0,false,IRVING PARK,K-12 School,90100,1904,1,,86,875946.2,3867689.9,,,,52.6,72.3,57.1,77.2,342.1,3.8,41.95872281,-87.71583845,"(41.95872281, -87.71583845)",2020-251576
2020,104340,,Submitted Data,4701 4705 N BEACON ST,60640,4.0,false,UPTOWN,Multifamily Housing,50100,1930,1,,95,578883.1,3030882.8,,,,72.1,95.9,78,102.2,251.3,5,41.97223008,-87.6645957,"(41.97223008, -87.6645957)",2020-104340
2020,251228,444 N Wells St,Submitted Data,444 N Wells St,60654,4.0,false,NEAR NORTH SIDE,Office,73332,1903,1,,82,2804036.4,,,,,38.2,107.1,39.6,110.9,437.6,6,41.89053894,-87.6340678,"(41.89053894, -87.6340678)",2020-251228
2020,241377,Wells Street Tower Condominium Association,Submitted Data,701 S Wells St,60607,1.0,false,LOOP,Multifamily Housing,365484,2002,1,,24,9329868.5,16046290,,,,95,160.8,98.9,164.4,2308.4,8.6,41.87320687,-87.63328749,"(41.87320687, -87.63328749)",2020-241377
2020,251657,Locke Elementary -CPS,Submitted Data,2845 N Newcastle Ave,60634,2.5,false,MONTCLARE,K-12 School,112000,1927,1,,38,3236081.2,5314830.2,,,,76.3,130.7,84.7,139.5,787.3,7,41.9321161,-87.79631882,"(41.9321161, -87.79631882)",2020-251657
2020,159735,Sheridan Plaza Apartments,Submitted Data,4601 4613 N SHERIDAN RD,60640,3.0,false,UPTOWN,Multifamily Housing,165792,1920,1,,44,5621909.4,4990184,,,,68.8,136,71.7,140.1,1142.5,7.4,41.96573115,-87.65423709,"(41.96573115, -87.65423709)",2020-159735
2020,173757,,Submitted Data,431  W OAKDALE AVE,60657,4.0,false,LAKE VIEW,Multifamily Housing,136304,1927,1,,86,1065741.6,7380531.1,,,,62,78.7,65.7,82.3,558.3,4.1,41.9398511,-87.65844752,"(41.9398511, -87.65844752)",2020-173757
2020,250088,Harry J. Schneider Apartments,Submitted Data,1750 W Peterson Ave,60660,3.0,false,EDGEWATER,Multifamily Housing,111293,1977,1,,50,2636312.6,8996829.8,,,,104.5,151.2,111.1,158.1,889.3,8,41.99125997,-87.67384081,"(41.99125997, -87.67384081)",2020-250088
2020,102380,,Submitted Data,4600  N CUMBERLAND AVE,60656,4.0,false,OHARE,Multifamily Housing,62341,1974,1,,85,1060467.6,3418261.9,,,,75,109.8,80.4,114.6,347.1,5.8,41.97087009,-87.79892589,"(41.97087009, -87.79892589)",2020-102380
2020,251418,Hitch Elementary -CPS,Submitted Data,5625 N Mcvicker Ave,60646,3.0,false,NORWOOD PARK,K-12 School,82050,1926,1,,43,3045536.3,1574730,,,,56.3,124.1,60,129.3,559,6.8,41.98409017,-87.7788465,"(41.98409017, -87.7788465)",2020-251418
2020,256803,,Not Submitted,4914 N CLARK ST,60640,0.0,false,Uptown,,50000,,,,,,,,,,,,,,,,41.97596,-87.669615,"(41.97596, -87.669615)",2020-256803
2020,254009,Maple Court Apartments,Submitted Data,1120 1126 E 47th St,60653,2.0,false,Kenwood,Multifamily Housing,50760,1915,1,,23,421794.8,5861699.8,,,,123.8,144.5,131.2,152.3,377.2,7.4,41.8202295,-87.61187,"(41.8202295, -87.61187)",2020-254009
2020,175181,,Submitted Data,652  E 50TH ST,60615,4.0,false,GRAND BOULEVARD,Multifamily Housing,71864,2014,4,,82,1283334.3,3028319.9,,,,60,94.2,61.8,94.8,361.1,5,41.80224043,-87.60332678,"(41.80224043, -87.60332678)",2020-175181
2020,173883,,Not Submitted,1029 1051 W NORTH SHORE AVE,60626,0.0,false,ROGERS PARK,,65620,,,,,,,,,,,,,,,,42.01036185,-87.66829765,"(42.01036185, -87.66829765)",2020-173883
2020,103739,20 N Clark St,Submitted Data,20 N Clark St,60602,4.0,false,LOOP,Office,433246,1981,1,,86,17225785.9,,,,,39.8,111.3,43.1,120.6,2688.4,6.2,41.88230282,-87.63117675,"(41.88230282, -87.63117675)",2020-103739
2020,256639,MRR 619 S LaSalle LLC,Submitted Data,619 S LaSalle,60605,3.0,false,,Multifamily Housing,1217060,1909,1,,67,2472731,3740693.2,,,,65.8,114.8,67.3,116.3,584.6,6.2,41.86949,-87.625855,"(41.86949, -87.625855)",2020-256639
2020,130634,Academy of General Dentistry,Submitted Data,560 - 566 W Lake St,60661,4.0,false,NEAR WEST SIDE,Office,113151,1920,1,,74,5515037.5,,,,,48.7,136.5,51.9,145.2,860.7,7.6,41.88592549,-87.64270985,"(41.88592549, -87.64270985)",2020-130634
2020,102093,,Not Submitted,551 555 N PINE AVE,60644,0.0,false,AUSTIN,,71880,,,,,,,,,,,,,,,,41.88039405,-87.75826967,"(41.88039405, -87.75826967)",2020-102093
2020,234566,,Submitted Data,1410 N STATE PKWY,60610,2.0,false,NEAR NORTH SIDE,Multifamily Housing,135000,1980,1,,46,5147482.5,3056966.8,,,,68.3,146.7,72.2,155.7,965.7,8,41.90826903,-87.62920718,"(41.90826903, -87.62920718)",2020-234566
2020,251704,Armstrong Intl Studies Elementary -CPS,Submitted Data,2110 W Greenleaf Ave,60645,2.0,false,WEST RIDGE,K-12 School,147016,1911,1,,30,4743412.3,7329630.4,,,,82.1,142.7,88.5,149.4,1129.6,7.7,42.01059222,-87.68459629,"(42.01059222, -87.68459629)",2020-251704
2020,112110,Old Cook County Hospital,Not Submitted,1835 W HARRISON ST,60612,0.0,false,NEAR WEST SIDE,,707000,,,,,,,,,,,,,,,,41.87410075,-87.67236184,"(41.87410075, -87.67236184)",2020-112110
2020,251476,Jensen Scholastic Academy - CPS,Submitted Data,3024 W Harrison,60612,4.0,false,EAST GARFIELD PARK,K-12 School,64440,1962,1,,65,1242003.7,2721930.2,,,,61.5,98.3,65.7,102.7,338.4,5.3,41.873768,-87.701596,"(41.873768, -87.701596)",2020-251476
2020,173805,,Submitted Data,1000 W LELAND AVE,60640,4.0,false,UPTOWN,Multifamily Housing,190476,2004,1,,100,2317164.3,3450673.7,,,,40.3,70.6,41.8,72.2,544.9,3.8,41.97223008,-87.6645957,"(41.97223008, -87.6645957)",2020-173805
2018,255939,XS Tennis and Education Foundation,Not Submitted,5334 S State St,60609,0.0,false,WASHINGTON PARK,,116997,,1,138,,,,,,,,,,,,,41.8083,-87.66875,"(41.8083, -87.66875)",2018-255939
2020,251665,"Hayt Elementary, Stephen K -CPS",Submitted Data,1518 W Granville Ave,60660,2.5,false,EDGEWATER,K-12 School,118800,1906,1,,37,2936876.5,7051350,,,,84.1,131.5,92,139.9,832.9,7,41.99475547,-87.66823796,"(41.99475547, -87.66823796)",2020-251665
2020,227382,Drake Tower Apartments,Submitted Data,179 E LAKESHORE DR,60611,2.0,false,NEAR NORTH SIDE,Multifamily Housing,276310,1928,1,,19,4439096.2,378585.6,19141002.1,,,97.3,145.6,,,1983.8,8.1,41.90042814,-87.62262826,"(41.90042814, -87.62262826)",2020-227382
2020,175884,,Not Submitted,315 N RACINE AVE,60607,0.0,false,NEAR WEST SIDE,,108000,,,,,,,,,,,,,,,,41.88711773,-87.65681078,"(41.88711773, -87.65681078)",2020-175884
2020,251301,Lincoln Park Tower Condominium Association,Submitted Data,1960 N Lincoln Park West,60614,2.5,false,LINCOLN PARK,Multifamily Housing,413860,1967,1,,36,7640222,26942598.3,,,,103.8,149.2,108.5,154.1,2623.5,7.9,41.91805785,-87.63701176,"(41.91805785, -87.63701176)",2020-251301
2020,175398,,Not Submitted,5630  S MICHIGAN AVE,60637,0.0,false,WASHINGTON PARK,,60000,,,,,,,,,,,,,,,,41.78046327,-87.6053081,"(41.78046327, -87.6053081)",2020-175398
2020,251553,Sawyer Elementary -CPS,Submitted Data,5248 S Sawyer Ave,60632,3.5,false,GAGE PARK,K-12 School,163308,1901,1,,53,4121541.1,6277370.4,,,,63.7,111,66.7,114.2,976.7,6,41.79758019,-87.70526137,"(41.79758019, -87.70526137)",2020-251553
2020,129963,,Exempt,2290 S Grove Street,60616,,true,ARMOUR SQUARE,,59412,,,,,,,,,,,,,,,,41.8520324,-87.63944223,"(41.8520324, -87.63944223)",2020-129963
2020,128724,Broadview Hall,Submitted Data,5540  S HYDE PARK BLVD,60637,3.0,false,HYDE PARK,Multifamily Housing,48700,1926,1,,65,1723223.8,6083606.1,,,,160.3,230.2,168.8,239.2,592.1,12.2,41.78046327,-87.6053081,"(41.78046327, -87.6053081)",2020-128724
2020,118998,,Submitted Data,3845  S STATE ST,60609,0.0,false,DOUGLAS,,114528,,,,,,,,,,,,,,,,41.81195152,-87.65512794,"(41.81195152, -87.65512794)",2020-118998
2020,251535,U Of Chicago Charter- Donoghue -CPS,Submitted Data,707 E 37th St,60653,2.5,false,OAKLAND,K-12 School,74828,1963,1,,33,1729414.2,5101539.8,,,,91.3,136.3,97,143.4,540.9,7.2,41.82748182,-87.60830918,"(41.82748182, -87.60830918)",2020-251535
2020,250113,William Castleman Apartments,Submitted Data,4945 N Sheridan Rd,60640,3.0,false,UPTOWN,Multifamily Housing,149600,1967,1,,44,2461297.4,13822846.8,,,,108.9,143.1,115,149,1118.3,7.5,41.97298081,-87.65453676,"(41.97298081, -87.65453676)",2020-250113
2020,104789,,Submitted Data,2322 2326 N COMMONWEALTH AVE,60614,3.5,false,LINCOLN PARK,Multifamily Housing,80000,1926,1,,71,778195.9,6142080.5,,,,86.5,107.9,91.8,113.1,447.7,5.6,41.92201051,-87.65461957,"(41.92201051, -87.65461957)",2020-104789
2020,157348,Thomas F Flannery Apartments,Submitted Data,1531 N Clybourn Ave,60610,4.0,false,NEAR NORTH SIDE,Multifamily Housing,99696,1965,2,,80,1921672.5,9430782,,,,113.9,153.3,120.9,160.6,800.8,8,41.90965061,-87.64658669,"(41.90965061, -87.64658669)",2020-157348
2020,100002,Clemente Community Academy HS -CPS,Submitted Data,1147 N Western Ave,60622,2.0,false,WEST TOWN,K-12 School,354518,1974,1,,18,23008936.8,1664640,,,,69.6,186.7,71.8,192.7,3679.4,10.4,41.90261979,-87.68613497,"(41.90261979, -87.68613497)",2020-100002
2020,250043,Fenger Achievement Academy -CPS,Submitted Data,11220 S Wallace St,60628,4.0,false,ROSELAND,K-12 School,341000,1926,1,,79,4205664.3,18466879.4,,,,66.5,91.4,71.6,96.7,1637.2,4.8,41.68907836,-87.63835866,"(41.68907836, -87.63835866)",2020-250043
2020,250015,Hamilton Park,Submitted Data,513 W 72nd St,60621,1.0,false,ENGLEWOOD,Other - Recreation,66458,1905,1,,,991638.6,8869586.5,,,,180.1,220.8,192.7,234,625.9,11.4,41.76303922,-87.63901962,"(41.76303922, -87.63901962)",2020-250015
2020,100470,Lawson Partners,Submitted Data,30 W Chicago,60654,2.5,false,NEAR NORTH SIDE,Multifamily Housing,259349,1930,1,,55,7114992.6,24162555.1,,,,120.6,174.6,127.4,181.9,2393.8,9.2,41.896703,-87.629373,"(41.896703, -87.629373)",2020-100470
2020,231205,Cornell Village,Submitted Data,5201 S Cornell Ave,60615,4.0,false,HYDE PARK,Multifamily Housing,302000,1969,1,,65,5142477.5,18769029.3,,,,82.7,118,87.3,122.4,1799.5,6.2,41.80086685,-87.58562562,"(41.80086685, -87.58562562)",2020-231205
2020,135007,IRI Global Headquarters,Exempt,150 N Clinton St,60661,,true,NEAR WEST SIDE,,169750,,,,,,,,,,,,,,,,41.88477893,-87.64127771,"(41.88477893, -87.64127771)",2020-135007
2020,175679,240 N Ashland Ave,Submitted Data,240 N Ashland Ave,60607,4.0,false,NEAR WEST SIDE,Office,81887,1900,1,,96,1381791.8,627500,,,,24.5,55.3,25.2,55.4,249,3,41.88655482,-87.66760406,"(41.88655482, -87.66760406)",2020-175679
2020,251943,1825 W Lawrence Ave,Not Submitted,1825 W Lawrence Ave,60640,0.0,false,LINCOLN SQUARE,,53684,,,,,,,,,,,,,,,,41.96854338,-87.67576455,"(41.96854338, -87.67576455)",2020-251943
2020,243108,The 3600 Condominium Association,Submitted Data,3600 N Lake Shore Dr,60613,1.0,false,LAKE VIEW,Multifamily Housing,841880,1961,1,,28,15136788.3,61291727.6,,,,98.1,136.9,103.6,142.8,5617.9,7.2,41.94896909,-87.64428388,"(41.94896909, -87.64428388)",2020-243108
2020,175580,,Submitted Data,7200  S SOUTH SHORE DR,60649,2.5,false,SOUTH SHORE,Multifamily Housing,77607,1915,1,,51,921992.2,4756125.1,,,,73.2,97.6,77.2,101.9,396.5,5.1,41.76259226,-87.57231648,"(41.76259226, -87.57231648)",2020-175580
2020,174228,Roscoe Square - Chicago,Submitted Data,3330 N Western Ave,60618,4.0,false,NORTH CENTER,Supermarket/Grocery Store,51298,1981,1,,100,571099,3431968,,,,78,101.4,82.7,106.3,271.4,5.3,41.94133511,-87.68998877,"(41.94133511, -87.68998877)",2020-174228
2020,256775,,Not Submitted,10355 S WOODLAWN AVE,60628,0.0,false,Pullman,,50000,,,,,,,,,,,,,,,,41.68176,-87.636,"(41.68176, -87.636)",2020-256775
2020,250155,NMH 211 East Ontario,Submitted Data,211 E Ontario St,60611,4.0,false,NEAR NORTH SIDE,Office,188172,1983,1,,61,11063287.2,,,,,58.8,164.6,61.5,172.2,1726.6,9.2,41.89311288,-87.62202043,"(41.89311288, -87.62202043)",2020-250155
2020,254181,International House,Submitted Data,1414 E 59th St,60637,4.0,false,Hyde Park,Residence Hall/Dormitory,237121,1932,1,,83,3211777,192393,14102727.9,166200,,74.5,111,78.9,116.2,1456.6,6.1,41.8842525,-87.63245,"(41.8842525, -87.63245)",2020-254181
2020,251634,Calmeca Fine Arts -CPS,Submitted Data,3456 W 38th Street,60632,3.5,false,BRIGHTON PARK,K-12 School,108624,2010,1,,56,2952168.9,3267080.1,,,,57.3,107.7,59.3,109.8,634.3,5.8,41.82509374,-87.7114156,"(41.82509374, -87.7114156)",2020-251634
2020,101899,,Submitted Data,6830  N SHERIDAN RD,60626,3.5,false,ROGERS PARK,Multifamily Housing,67064,1967,1,,75,1220346.1,4583757.5,,,,90.3,128.1,96.6,134.2,433.9,6.8,42.01036185,-87.66829765,"(42.01036185, -87.66829765)",2020-101899
2020,251337,The Theatre School,Submitted Data,2350 N Racine Ave,60614,4.0,false,LINCOLN PARK,College/University,163000,2013,1,,,2842561,6976008.3,,,,60.2,93.8,62,95.6,814.2,5,41.924672,-87.658471,"(41.924672, -87.658471)",2020-251337
2020,103689,Old Chicago Main Post Office,Exempt,404 W HARRISON ST,60607,,true,NEAR WEST SIDE,,3899026,,,,,,,,,,,,,,,,41.87665199,-87.63815929,"(41.87665199, -87.63815929)",2020-103689
2020,252073,118 S Clinton St,Submitted Data,118 S Clinton St,60661,3.5,false,NEAR WEST SIDE,Office,78751,1910,1,,55,3862754.7,,,,,49.1,137.3,49.1,137.3,602.9,7.7,41.87993535,-87.64144916,"(41.87993535, -87.64144916)",2020-252073
2020,256429,Carmen Hall,Submitted Data,60 E 32nd Street,60616,4.0,false,DOUGLAS,Residence Hall/Dormitory,69559,1953,1,,100,1253780.3,44470,,,,18.7,51.1,18.7,51.1,198,2.8,41.842325,-87.62715344,"(41.842325, -87.62715344)",2020-256429
2020,101226,,Submitted Data,1200  E 78TH ST,60619,4.0,false,AVALON PARK,Multifamily Housing,113616,2009,1,,84,1721531.5,4113218.3,,,,63,98.7,66,101.8,487.2,5.3,41.74401302,-87.60549928,"(41.74401302, -87.60549928)",2020-101226
2020,251628,Miles Davis Elementary -CPS,Submitted Data,6740 S Paulina St,60636,2.5,false,WEST ENGLEWOOD,K-12 School,104200,2008,1,,37,3973488.5,2414640.1,,,,61.3,131.1,63.7,134.2,748.4,7.2,41.77110031,-87.66677518,"(41.77110031, -87.66677518)",2020-251628
2020,254564,Merrimac Square III,Not Submitted,6530 W Irving Park Rd,60634,0.0,false,DUNNING,,71000,,,,,,,,,,,,,,,,41.93831557,-87.78903681,"(41.93831557, -87.78903681)",2020-254564
2020,159655,,Submitted Data,3000 N SHERIDAN RD,60657,4.0,false,LAKE VIEW,Multifamily Housing,228057,1931,1,,98,642665,13837867.2,,,,64.8,73,68.9,77.2,835.3,3.7,41.9367866,-87.63982583,"(41.9367866, -87.63982583)",2020-159655
2020,250070,Bridgeport Homes,Submitted Data,844 W 32nd St,60608,4.0,false,BRIDGEPORT,Multifamily Housing,110616,1943,1,,64,3164625.8,1791770,,,,44.8,97.1,45.2,96.1,589.1,5.3,41.83657783,-87.64816386,"(41.83657783, -87.64816386)",2020-250070
2020,254015,North Park Village Apartments - Building G,Submitted Data,5801 N Pulaski Rd - Bldg G,60646,4.0,false,North Park,Residential Care Facility,191550,1981,1,,,6404134,8671238.9,,,,78.7,141.1,84.6,148.1,1460.1,7.6,41.9995854,-87.77148,"(41.9995854, -87.77148)",2020-254015
2020,105820,,Not Submitted,7353  S CICERO AVE,60629,0.0,false,WEST LAWN,,120570,,,,,,,,,,,,,,,,41.77517105,-87.71389848,"(41.77517105, -87.71389848)",2020-105820
2020,142211,,Submitted Data,630 644 W ADDISON ST,60613,2.0,false,LAKE VIEW,Multifamily Housing,50736,1925,1,,46,708245.9,3853963.8,,,,89.9,118.8,95.5,124.7,315.2,6.2,41.95402016,-87.6620278,"(41.95402016, -87.6620278)",2020-142211
2020,103705,The National,Submitted Data,125 S Clark St,60603,4.0,false,LOOP,Office,580000,1907,1,,78,13408193.1,28858203.3,,8347968.2,,87.3,130.1,90.2,133.2,4065.3,7,41.879992,-87.630764,"(41.879992, -87.630764)",2020-103705
2020,242635,R&D 659 CA,Submitted Data,659 W Randolph St,60661,4.0,false,NEAR WEST SIDE,Multifamily Housing,335000,2008,1,,100,8769266.5,15670769.4,,,,79.7,133.8,83,136.8,2201,7.2,41.88401509,-87.64470335,"(41.88401509, -87.64470335)",2020-242635
2020,251760,"Walsh, John A -CPS",Submitted Data,2031 S Peoria St,60608,2.5,false,LOWER WEST SIDE,K-12 School,73288,1992,1,,35,2087219.7,3744980.1,,,,79.6,133.4,83.8,137.8,524.7,7.2,41.85437796,-87.64784268,"(41.85437796, -87.64784268)",2020-251760
2020,238049,,Submitted Data,740 W FULTON ST,60661,2.0,false,NEAR WEST SIDE,Multifamily Housing,245715,2007,1,,41,5801891,8458979.8,,,,86.8,153,90,156.4,1354.8,8.2,41.88719418,-87.64722371,"(41.88719418, -87.64722371)",2020-238049
2020,174126,Pete's 118th,Submitted Data,3454 - 3620 E 118th St,60617,1.0,false,HEGEWISCH,Supermarket/Grocery Store,94000,1980,1,,19,9625002.8,7587758,,,,318.8,646.6,330.3,661.7,1905.2,35.3,41.68095,-87.535552,"(41.68095, -87.535552)",2020-174126
2020,113754,Fifteen Thirty North State Parkway Building Corporation,Submitted Data,1530 1534 N STATE PKWY,60610,4.0,false,NEAR NORTH SIDE,Multifamily Housing,82916,1929,1,,,963432.8,,,,,72.2,98.1,76.4,102.2,390.1,5.1,41.9037528,-87.63558845,"(41.9037528, -87.63558845)",2020-113754
2020,105792,,Submitted Data,424  W DIVERSEY PKWY,60614,4.0,false,LAKE VIEW,Multifamily Housing,79250,1926,1,,95,2432800.4,3779476.1,,,,78.4,136,81.2,141.2,580.4,7.3,41.92201051,-87.65461957,"(41.92201051, -87.65461957)",2020-105792
2020,251409,Dewey Academy Of Fine Arts -CPS,Submitted Data,5401 S Union Ave,60609,3.0,false,NEW CITY,K-12 School,71361,1896,1,,41,2166784.1,3042700.1,,,,73,129.8,77.2,135.6,499.8,7,41.796083,-87.642718,"(41.796083, -87.642718)",2020-251409
2020,254094,,Not Submitted,3041 S Michigan Ave,60616,0.0,false,Douglas,,93133,,,,,,,,,,,,,,,,41.8458598,-87.62921,"(41.8458598, -87.62921)",2020-254094
2020,256856,,Not Submitted,2201 Lakeside Blvd,,,true,,,294973,,,,,,,,,,,,,,,,41.88425,-87.63245,"(41.88425, -87.63245)",2020-256856
2020,175785,,Submitted Data,2532 2554 NARRAGANSETT AVE,60639,4.0,false,BELMONT CRAGIN,Other - Mall,68653,1977,1,,,1725929.2,1381363.2,,,,45.3,91.5,47.5,94,342.7,5,41.92643282,-87.78559086,"(41.92643282, -87.78559086)",2020-175785
2020,175185,,Submitted Data,1949 1959 E 71ST ST,60649,2.0,false,SOUTH SHORE,Multifamily Housing,52193,1935,1,,49,797281.7,4034250.1,,,,92.6,123.9,96.2,127.3,338.7,6.5,41.76259226,-87.57231648,"(41.76259226, -87.57231648)",2020-175185
2020,251876,Sizemore - Shabazz Charter,Not Submitted,1540 W 84TH ST,60620,0.0,false,AUBURN GRESHAM,,70232,,,,,,,,,,,,,,,,41.74157386,-87.66222081,"(41.74157386, -87.66222081)",2020-251876
2020,175346,,Submitted Data,4700  S COTTAGE GROVE AVE,60615,1.0,false,GRAND BOULEVARD,Multifamily Housing,201415,2013,5,,3,11675983,4752066.9,,,,81.6,187.1,83.9,191.3,2074.7,10.3,41.80224043,-87.60332678,"(41.80224043, -87.60332678)",2020-175346
2020,251406,John Whistler Elementary -CPS,Submitted Data,11513 S Ada St,60643,4.0,false,WEST PULLMAN,K-12 School,88230,1958,1,,65,923085.2,5742310.4,,,,75.5,97.6,80.4,102.7,449.1,5.1,41.684683,-87.655468,"(41.684683, -87.655468)",2020-251406
2020,160349,AMLI Lofts,Submitted Data,850 S CLARK ST,60605,4.0,false,LOOP,Multifamily Housing,243432,2014,1,,93,4767307.9,4509465.7,,,,45.9,89.4,46.9,90.4,983.5,4.9,41.89817078,-87.63173366,"(41.89817078, -87.63173366)",2020-160349
2020,156543,Mentor Building,Submitted Data,39 S STATE ST,60603,1.0,false,LOOP,Multifamily Housing,72150,1903,1,,5,3203400.4,3714530.4,,,,95.9,178.4,100.2,185.8,697.2,9.7,41.88156186,-87.62774159,"(41.88156186, -87.62774159)",2020-156543
2020,238910,Lake Point Tower,Submitted Data,505 N Lake Shore Dr,60611,2.0,false,NEAR NORTH SIDE,Multifamily Housing,1705000,1968,1,,46,58039418.1,21158460.8,,,,53.5,124.8,56.8,133.2,10182,6.9,41.89150137,-87.61230249,"(41.89150137, -87.61230249)",2020-238910
2020,250080,Albany Terrace Apts,Submitted Data,3030 W 21st Pl,60623,4.0,false,SOUTH LAWNDALE,Multifamily Housing,262612,1974,1,,86,4098996.6,14917360,,,,72.4,103.3,76.3,107.2,1432.1,5.5,41.85331733,-87.70144548,"(41.85331733, -87.70144548)",2020-250080
2020,251281,40 E Oak St,Submitted Data,40 E Oak St,60611,2.0,false,NEAR NORTH SIDE,Multifamily Housing,154113,1928,1,,41,2790319.4,15197446,,,,116.7,154.2,123.9,161.5,1242.7,8.1,41.90102328,-87.62678724,"(41.90102328, -87.62678724)",2020-251281
2020,105360,,Submitted Data,200  N CENTRAL AVE,60644,1.5,false,AUSTIN,Multifamily Housing,50291,1930,1,,35,733259.3,4613476.4,,,,106.3,137.1,111,142.1,359.5,7.1,41.88039405,-87.75826967,"(41.88039405, -87.75826967)",2020-105360
2020,101545,,Submitted Data,849 863 W BUENA AVE,60613,2.0,false,UPTOWN,Multifamily Housing,51163,1925,1,,47,537004.4,4176649.7,,,,92.1,115.1,98.2,121.4,305.7,6,41.95402016,-87.6620278,"(41.95402016, -87.6620278)",2020-101545
2020,130882,,Submitted Data,832 854 W FULTON MARKET,60607,,true,NEAR WEST SIDE,Mixed Use Property,118640,2017,1,,,8975876.5,12700341,,,,224.5,398.4,229.7,403.9,2075.4,21.5,41.8870513,-87.64927047,"(41.8870513, -87.64927047)",2020-130882
2020,175760,,Submitted Data,7300 S SOUTH SHORE DR,60649,4.0,false,SOUTH SHORE,Multifamily Housing,122332,1968,1,,80,1152266.5,6738768.3,,,,76.9,100.4,80.6,104.3,537.8,5.2,41.76259226,-87.57231648,"(41.76259226, -87.57231648)",2020-175760
2020,244503,5000 East End Condominium Association,Submitted Data,5000 S East End Ave,60615,3.0,false,KENWOOD,Multifamily Housing,260297,1928,1,,67,2633310,18140642.2,,,,88.4,112.5,93.7,117.3,1374.5,5.9,41.80422316,-87.58577365,"(41.80422316, -87.58577365)",2020-244503
2020,103614,Ann & Robert H. Lurie Children's Hospital of Chicago,Submitted Data,225 E Chicago Ave,60611,4.0,false,NEAR NORTH SIDE,Hospital (General Medical & Surgical),1287909,2012,1,,73,114113847.1,169769568,,,,221.9,388,225.2,389.4,26970.9,20.9,41.896764,-87.621559,"(41.896764, -87.621559)",2020-103614
2020,252318,,Submitted Data,7600 N Bosworth,60626,4.0,false,ROGERS PARK,Multifamily Housing,130365,1922,1,,96,1389315.2,5077371.8,,,,49.6,70.7,53.1,74.5,486.5,3.7,42.01945041,-87.66951229,"(42.01945041, -87.66951229)",2020-252318
2020,175475,333 S Ashland Ave,Submitted Data,333 S Ashland Ave,60607,4.0,false,NEAR WEST SIDE,Office,68150,1930,1,,63,1163445.7,4503996.7,,,,83.2,117.2,92,127,420.8,6.2,41.877185,-87.666647,"(41.877185, -87.666647)",2020-175475
2020,161872,Parkside Elementary Academy -CPS,Submitted Data,6938 S E End Ave,60649,3.0,false,SOUTH SHORE,K-12 School,75104,1917,1,,45,921647.6,6175489.8,,,,94.5,120.7,101.9,128.8,471.9,6.3,41.7689093,-87.5833058,"(41.7689093, -87.5833058)",2020-161872
2020,160326,,Submitted Data,1010 W 35TH ST,60609,4.0,false,BRIDGEPORT,Other,240000,1990,1,,,2030713.3,3360538.6,,,,22.5,38.4,23.6,39.6,495.4,2.1,41.83093022,-87.6519988,"(41.83093022, -87.6519988)",2020-160326
2020,145926,,Submitted Data,7301 N SHERIDAN RD,60626,3.5,false,ROGERS PARK,Multifamily Housing,74884,1922,1,,73,1602790.4,4852364.6,,,,86.2,128,92.6,134.7,507.9,6.8,42.01036185,-87.66829765,"(42.01036185, -87.66829765)",2020-145926
2020,251584,"Deneen Elementary, Charles S -CPS",Submitted Data,7240 S Wabash Ave,60619,3.0,false,GREATER GRAND CROSSING,K-12 School,87736,1955,1,,49,1810909.3,4915950.1,,,,76.7,116.6,81.2,121.4,543.7,6.2,41.76239877,-87.62373586,"(41.76239877, -87.62373586)",2020-251584
2020,175914,,Submitted Data,5225  S HARPER AVE,60615,4.0,false,HYDE PARK,Hotel,84947,2013,1,,,3157554.2,2792707,,,,70,138.6,71.9,140.5,641.1,7.5,41.80224043,-87.60332678,"(41.80224043, -87.60332678)",2020-175914
2020,251581,Avalon Park Elementary -CPS,Submitted Data,8045 S Kenwood Ave,60619,3.0,false,AVALON PARK,K-12 School,87101,1915,1,,44,1867824,5197999.8,,,,81.1,122.7,86.8,130,567.6,6.5,41.74849276,-87.59132698,"(41.74849276, -87.59132698)",2020-251581
2020,251240,5757 N Sheridan CA,Submitted Data,5757 N Sheridan Rd,60660,1.5,false,EDGEWATER,Multifamily Housing,224173,1962,1,,38,1401175.4,21940190,,,,118.1,136.4,132.4,151.5,1384,7,41.98719804,-87.65477168,"(41.98719804, -87.65477168)",2020-251240
2020,160279,Millennium Park Plaza,Submitted Data,151 - 155 N Michigan Ave,60601,1.0,false,LOOP,Multifamily Housing,663464,1982,1,,2,42877203.4,22289746.4,,,,106.7,234.9,111.1,243,7875.7,12.9,41.88468249,-87.62412202,"(41.88468249, -87.62412202)",2020-160279
